[{"id":"00371f90-ab6b-46a9-95cf-1641495d47ab","name":"Caffeine Pit 咖啡因子","city":"taichung","wifi":5,"seat":4,"quiet":4.5,"tasty":4.5,"cheap":5,"music":5,"url":"","address":"408台中市南屯區精誠路594-1號","latitude":"24.14099100","longitude":"120.65495400","limited_time":"","socket":"","standing_desk":"","mrt":"","open_time":""},{"id":"004c4a03-ca13-4eaa-8c67-c4199ff374df","name":"窩柢咖啡","city":"taichung","wifi":5,"seat":4,"quiet":4,"tasty":5,"cheap":4,"music":5,"url":"https://www.facebook.com/WoDihouse/","address":"台中市西屯區杏林路27號","latitude":"24.16777300","longitude":"120.64203940","limited_time":"","socket":"yes","standing_desk":"","mrt":"","open_time":"低消一杯飲品/人。禁用外食"},{"id":"02099240-5fc8-45a1-a042-071aea5b27df","name":"Michaelis執事喫茶","city":"taichung","wifi":5,"seat":3,"quiet":4,"tasty":5,"cheap":3,"music":5,"url":"https://www.facebook.com/Michaelis.tw/","address":"台中市北區光大街26號","latitude":"24.14983000","longitude":"120.67693900","limited_time":"maybe","socket":"yes","standing_desk":"no","mrt":"","open_time":"12:00-17:40、18:30-20:30"},{"id":"02a10fe6-b7f6-4d91-8472-c57fcbafa0df","name":"Cheers Cafe","city":"taichung","wifi":5,"seat":4,"quiet":4,"tasty":5,"cheap":5,"music":5,"url":"https://m.facebook.com/CheersCafeTaiwan/","address":"台中市南屯區環中路四段303-1號","latitude":"24.13740470","longitude":"120.62319880","limited_time":"no","socket":"maybe","standing_desk":"no","mrt":"","open_time":"周末或大型聚會延長營業時間"},{"id":"040ae529-e2c0-4d22-bbd4-350cbcbaa4e2","name":"華泰咖啡","city":"taichung","wifi":4,"seat":5,"quiet":5,"tasty":5,"cheap":4,"music":5,"url":"","address":"台中市中區三民路二段18巷32號","latitude":"24.13996540","longitude":"120.67814030","limited_time":"","socket":"","standing_desk":"","mrt":"","open_time":""},{"id":"0452e12c-7af0-46ff-a2eb-5ae8861afe3c","name":"Café LuLu 自家烘焙任性咖啡館","city":"taichung","wifi":5,"seat":5,"quiet":5,"tasty":5,"cheap":5,"music":5,"url":"https://www.facebook.com/cafelulu2014/","address":"台中市西區大墩十街70號","latitude":"24.14787790","longitude":"120.65249240","limited_time":"no","socket":"maybe","standing_desk":"yes","mrt":"","open_time":""},{"id":"05482de3-516c-4f50-8a99-2dc8c6ac81e0","name":"清水散步","city":"taichung","wifi":0,"seat":0,"quiet":0,"tasty":0,"cheap":0,"music":0,"url":"","address":"436台中市清水区文昌街18號","latitude":"24.26989110","longitude":"120.57698810","limited_time":"","socket":"","standing_desk":"","mrt":"","open_time":""},{"id":"06a67809-1b63-444e-b6c1-364d8fc8a060","name":"目覺咖啡 urban","city":"taichung","wifi":0,"seat":5,"quiet":5,"tasty":4,"cheap":3,"music":5,"url":"","address":"台中市西屯區大恩街8號","latitude":"24.15827630","longitude":"120.64867540","limited_time":"no","socket":"maybe","standing_desk":"","mrt":"","open_time":""},{"id":"06fac9b8-44ab-415c-9f3e-ac689102260b","name":"黑水精品咖啡 Black Water Coffee Roaster","city":"taichung","wifi":0,"seat":5,"quiet":5,"tasty":4,"cheap":5,"music":0,"url":"https://www.facebook.com/BWCoffeeRoaster/","address":"406台灣台中市北屯區大連路二段50號","latitude":"24.17565530","longitude":"120.68589520","limited_time":"no","socket":"","standing_desk":"","mrt":"","open_time":""},{"id":"078bc07e-2a5d-4a02-9288-ac0923be0531","name":"Toyohara","city":"taichung","wifi":5,"seat":5,"quiet":4,"tasty":0,"cheap":3,"music":5,"url":"https://www.facebook.com/ToyoharaCoffeeRoasters/","address":"台中市豐原區源豐路42號","latitude":"24.25214800","longitude":"120.71588300","limited_time":"no","socket":"no","standing_desk":"yes","mrt":"","open_time":""},{"id":"07b39ba4-74ca-42b8-8395-b6c447b104f1","name":"晨翼咖啡 ","city":"taichung","wifi":0,"seat":0,"quiet":0,"tasty":0,"cheap":0,"music":0,"url":"","address":"436台中市清水區中興街10號","latitude":"24.27116560","longitude":"120.57802890","limited_time":"","socket":"","standing_desk":"","mrt":"","open_time":""},{"id":"08276825-558c-47f6-939b-4de0384a1d54","name":"葒 畫一杯咖啡","city":"taichung","wifi":5,"seat":5,"quiet":5,"tasty":5,"cheap":3,"music":4,"url":"https://www.facebook.com/HungDrawACupOfCoffee/","address":"台中市太平區新安街88號","latitude":"24.16021760","longitude":"120.70986580","limited_time":"no","socket":"maybe","standing_desk":"yes","mrt":"","open_time":""},{"id":"0932234d-cc7a-41b7-9b37-23e4c0c92aee","name":"Match Neverland（默契咖啡二號店）","city":"taichung","wifi":5,"seat":5,"quiet":5,"tasty":5,"cheap":4,"music":5,"url":"https://www.facebook.com/matchneverland","address":"台中市西區精誠十二街7號","latitude":"24.15251960","longitude":"120.65576250","limited_time":"no","socket":"yes","standing_desk":"yes","mrt":"","open_time":"11:00-19:00"},{"id":"0a20ac05-b481-4bda-b9cf-eafef4ff2d25","name":"尊任咖啡","city":"taichung","wifi":5,"seat":5,"quiet":5,"tasty":5,"cheap":3,"music":5,"url":"https://www.facebook.com/respectivecoffee/","address":"台中市西區民權路229巷21號","latitude":"0.00000000","longitude":"0.00000000","limited_time":"maybe","socket":"yes","standing_desk":"yes","mrt":"","open_time":""},{"id":"0ab312af-bfe5-44d5-a659-ebf9824c1afe","name":"Mh咖啡","city":"taichung","wifi":3,"seat":4.5,"quiet":4,"tasty":4.5,"cheap":5,"music":4.5,"url":"https://www.facebook.com/pg/mhjuicerycafe/about/?ref=page_internal","address":"台中市北屯區興安路一段238號","latitude":"24.17155100","longitude":"120.69444300","limited_time":"no","socket":"maybe","standing_desk":"no","mrt":"","open_time":""},{"id":"0b7d7cd0-cda1-42e5-ba82-646cbed3e5ba","name":"鐵木 Ironwood","city":"taichung","wifi":5,"seat":4.5,"quiet":5,"tasty":5,"cheap":4.5,"music":5,"url":"https://www.facebook.com/Tmcoffe/","address":"台中市龍井區新興路9巷10號","latitude":"24.18097790","longitude":"120.59134680","limited_time":"no","socket":"maybe","standing_desk":"no","mrt":"","open_time":"平日13:00-18:00(週三公休) 假日11:00-17:00"},{"id":"0b846b1b-606f-4cdd-a770-5b19d23e9dee","name":"拾年咖啡Coffee Decade ","city":"taichung","wifi":5,"seat":5,"quiet":5,"tasty":5,"cheap":4,"music":5,"url":"https://www.facebook.com/CoffeeDecade/","address":"台中市西區向上路一段289巷2號","latitude":"24.14649050","longitude":"120.65823950","limited_time":"no","socket":"yes","standing_desk":"no","mrt":"","open_time":"12:00-18:00"},{"id":"0c7cb15d-762f-4435-89be-c34b947b1dba","name":"樂啡樂莊園咖啡","city":"taichung","wifi":5,"seat":5,"quiet":5,"tasty":5,"cheap":5,"music":5,"url":"https://www.facebook.com/RomanorCaffe/","address":"台中市西區華美西街一段74號","latitude":"24.15452150","longitude":"120.65908220","limited_time":"no","socket":"yes","standing_desk":"no","mrt":"","open_time":"08:00 - 20:00"},{"id":"0c88cba7-dba7-4dcb-8980-8886a79513dd","name":"tutti督醍咖啡","city":"taichung","wifi":4,"seat":4,"quiet":4,"tasty":4,"cheap":4,"music":4,"url":"https://www.facebook.com/tuttitutticafe/","address":"台中市中區中山路247號","latitude":"24.14221360","longitude":"120.67795150","limited_time":"no","socket":"maybe","standing_desk":"","mrt":"","open_time":""},{"id":"0d674e6a-8cac-4a7a-8d2a-3b271453ab55","name":"Zeller Coffee","city":"taichung","wifi":5,"seat":5,"quiet":5,"tasty":5,"cheap":3,"music":5,"url":"https://www.facebook.com/zellercoffee/","address":"台中市南屯區大墩十一街154號","latitude":"24.14895360","longitude":"120.65145070","limited_time":"no","socket":"yes","standing_desk":"no","mrt":"","open_time":""},{"id":"0e7da749-fe56-4445-b0d3-46febac45a72","name":"Yasumi Cafe","city":"taichung","wifi":0,"seat":5,"quiet":4.5,"tasty":5,"cheap":4,"music":5,"url":"https://www.facebook.com/YasumicafeTaichung/?fref=ts","address":"南區忠明南路809號 台中市","latitude":"24.12233010","longitude":"120.66131550","limited_time":"no","socket":"","standing_desk":"","mrt":"","open_time":""},{"id":"0eccd41d-b0f7-441d-a038-a8d2b35e75af","name":"食いしん坊","city":"taichung","wifi":4,"seat":3,"quiet":3,"tasty":5,"cheap":3,"music":5,"url":"https://www.facebook.com/kuishinbou.wonda/","address":"台中市五權南路278巷25號","latitude":"24.12318880","longitude":"120.67080650","limited_time":"maybe","socket":"maybe","standing_desk":"no","mrt":"","open_time":""},{"id":"0ed5307f-dd4d-42f6-ade1-27fbd6806213","name":"葉桂英咖啡","city":"taichung","wifi":0,"seat":0,"quiet":0,"tasty":0,"cheap":0,"music":0,"url":"https://www.facebook.com/yehguiying/","address":"台中市西區精美街52號1樓","latitude":"24.15209240","longitude":"120.65370750","limited_time":"","socket":"","standing_desk":"","mrt":"","open_time":""},{"id":"128de46e-1c40-4d8b-b3cd-43e250fb1cf7","name":"鹿點咖啡 逐日","city":"taichung","wifi":5,"seat":5,"quiet":5,"tasty":5,"cheap":4,"music":5,"url":"","address":"台中市豐原區忠孝街105巷45號","latitude":"24.25296300","longitude":"120.71460900","limited_time":"no","socket":"maybe","standing_desk":"yes","mrt":"","open_time":""},{"id":"1365d049-adbf-4c50-86e5-7648d24c5a1b","name":"5春咖啡","city":"taichung","wifi":5,"seat":5,"quiet":4,"tasty":5,"cheap":4,"music":5,"url":"https://www.facebook.com/5chun/","address":"台中市西區五權一街162巷2弄5號","latitude":"24.13970870","longitude":"120.65829060","limited_time":"no","socket":"yes","standing_desk":"no","mrt":"","open_time":""},{"id":"14778446-de53-410c-9b7d-726a9c3da064","name":"85度C(清水店)","city":"taichung","wifi":0,"seat":0,"quiet":0,"tasty":0,"cheap":0,"music":0,"url":"","address":"436台中市清水區中山路339號","latitude":"24.27171200","longitude":"120.57627000","limited_time":"","socket":"","standing_desk":"","mrt":"","open_time":""},{"id":"14df058b-241d-4dbf-8cef-8404851aa859","name":"艸田 空間","city":"taichung","wifi":5,"seat":5,"quiet":5,"tasty":5,"cheap":5,"music":5,"url":"https://www.facebook.com/mellow.club1316/","address":"台中市北區育德路131巷6號","latitude":"24.15693030","longitude":"120.67422880","limited_time":"no","socket":"maybe","standing_desk":"yes","mrt":"","open_time":"10:00 - 22:00"},{"id":"154617e4-5e8c-4382-9274-ca26165d50f4","name":"手樂 S.L CAF'E","city":"taichung","wifi":4,"seat":5,"quiet":5,"tasty":5,"cheap":3,"music":0,"url":"https://www.facebook.com/s.lcafeonly/","address":"西屯區福林路80號 Taichung, Taiwan","latitude":"24.19172320","longitude":"120.61700070","limited_time":"no","socket":"no","standing_desk":"no","mrt":"","open_time":""},{"id":"1549e606-7a10-4ed0-a0c7-0b95dc5dd126","name":"THETA德希達咖啡","city":"taichung","wifi":4,"seat":5,"quiet":4,"tasty":5,"cheap":3,"music":5,"url":"https://www.zentheta.com.tw/?fbclid=IwAR1mTf9x9fFQGv7th7-7bYKVKWu6h2WED2QZG8fNW6NNxWnGnwPxGtknFOU","address":"台中市西區中興街47號","latitude":"24.14537850","longitude":"120.66305140","limited_time":"maybe","socket":"no","standing_desk":"yes","mrt":"","open_time":""},{"id":"173314a1-3b51-44ac-a0a1-043f2fa1d805","name":"找路咖啡","city":"taichung","wifi":4,"seat":4,"quiet":3,"tasty":5,"cheap":3,"music":4,"url":"https://www.facebook.com/findthewaycafe/","address":"台中市北區台中市北區德化街320號","latitude":"24.16167800","longitude":"120.68192800","limited_time":"","socket":"","standing_desk":"","mrt":"","open_time":""},{"id":"188b5789-59fc-4c8f-835e-374196ccc559","name":"西成珈琲","city":"taichung","wifi":0,"seat":5,"quiet":5,"tasty":5,"cheap":5,"music":5,"url":"https://www.facebook.com/nishinarigo/","address":"台中市西區大昌街214號","latitude":"24.14595930","longitude":"120.65234290","limited_time":"no","socket":"yes","standing_desk":"yes","mrt":"","open_time":"12:00-22:00(週二公休)"},{"id":"18c941f9-29a7-42e6-b577-6e740d0439ae","name":"有本生活坊","city":"taichung","wifi":5,"seat":5,"quiet":5,"tasty":5,"cheap":5,"music":4,"url":"https://www.facebook.com/%E6%9C%89%E6%9C%AC%E7%94%9F%E6%B4%BB%E5%9D%8A-288936521542028/?ref=bookmarks","address":"逢甲路253巷47號","latitude":"24.17529400","longitude":"120.64144400","limited_time":"maybe","socket":"yes","standing_desk":"yes","mrt":"","open_time":""},{"id":"18ffeb9d-2d64-48a8-85d2-98ffd2fd8205","name":"  Right Cafe","city":"taichung","wifi":4.5,"seat":4,"quiet":4,"tasty":4.5,"cheap":3.5,"music":4.5,"url":"http://www.rightstyle.com.tw/","address":"臺中市西區五權西四街13巷14號","latitude":"24.13902500","longitude":"120.66201750","limited_time":"","socket":"maybe","standing_desk":"","mrt":"","open_time":""},{"id":"19678fd1-e68e-4e42-b81d-255a5ec0d019","name":"SMILE CØFFEE 憲賣咖啡 (熱河店)","city":"taichung","wifi":5,"seat":4,"quiet":2.5,"tasty":4,"cheap":1.5,"music":4,"url":"https://www.facebook.com/smilecoffeee","address":"台中市北屯區熱河路二段128號","latitude":"24.17148100","longitude":"120.68775400","limited_time":"maybe","socket":"no","standing_desk":"yes","mrt":"","open_time":""},{"id":"1aa44297-3aa1-402f-9095-b8e61574be65","name":"CHDC CHΛP Deco & Cuisine","city":"taichung","wifi":0,"seat":5,"quiet":4,"tasty":5,"cheap":4,"music":5,"url":"https://www.facebook.com/chdc.tw/","address":"台中市龍井區藝術街107巷21號","latitude":"24.18788400","longitude":"120.59185200","limited_time":"no","socket":"","standing_desk":"","mrt":"","open_time":""},{"id":"1aa5b6d1-f915-4db6-8be5-08a5a466b72f","name":"coffee VA","city":"taichung","wifi":0,"seat":5,"quiet":4,"tasty":4,"cheap":4,"music":5,"url":"https://www.facebook.com/Coffee-VA-425231927827426/","address":"台中市霧峰區成功路230號","latitude":"24.05946440","longitude":"120.69942670","limited_time":"no","socket":"maybe","standing_desk":"","mrt":"","open_time":""},{"id":"1ab12373-e014-4fa6-8eae-0a2bdce4159f","name":"Art a New","city":"taichung","wifi":5,"seat":5,"quiet":5,"tasty":5,"cheap":5,"music":5,"url":"https://www.facebook.com/aNew.Art/?fref=ts","address":"台中市西區精誠五街32號","latitude":"24.15511400","longitude":"120.65770800","limited_time":"no","socket":"yes","standing_desk":"yes","mrt":"","open_time":"14:00-01:00"},{"id":"1ad9ecca-1cd3-4392-88d1-edd2e8e95aa8","name":"一瓣心香","city":"taichung","wifi":5,"seat":5,"quiet":4,"tasty":5,"cheap":5,"music":5,"url":"https://www.facebook.com/%E4%B8%80%E7%93%A3%E5%BF%83%E9%A6%99-%E9%99%B6%E8%97%9D%E5%92%96%E5%95%A1%E8%8C%B6%E9%A3%B2-205314062830149/","address":"台中市大甲區文武路119號","latitude":"24.34757310","longitude":"120.62191880","limited_time":"no","socket":"maybe","standing_desk":"no","mrt":"","open_time":""},{"id":"1b2a2f3e-0a57-4dc1-b0e8-2c1ee8c683f3","name":"香織咖啡后里店","city":"taichung","wifi":5,"seat":5,"quiet":5,"tasty":5,"cheap":5,"music":5,"url":"https://www.facebook.com/kaorikafe","address":"成功路473號","latitude":"24.30345710","longitude":"120.71381370","limited_time":"no","socket":"yes","standing_desk":"yes","mrt":"","open_time":"7：00-17：00"},{"id":"1b4551de-d212-4639-ae95-5e9f726612ef","name":"坊呼咖啡 Fun hoster","city":"taichung","wifi":0,"seat":0,"quiet":0,"tasty":0,"cheap":0,"music":0,"url":"https://www.facebook.com/funhoster","address":"台中市西區大和路71號","latitude":"24.14997710","longitude":"120.66751580","limited_time":"","socket":"","standing_desk":"","mrt":"","open_time":"週一、三：11:00-18:00 四五六日：11:00 - 21:00 週二公休"},{"id":"1b6057eb-fc7f-4718-9236-3674639d9470","name":"158咖啡香","city":"taichung","wifi":5,"seat":5,"quiet":5,"tasty":5,"cheap":5,"music":5,"url":"https://www.facebook.com/158aromatic/","address":"406台中市太平區長龍路一段158號","latitude":"24.13095230","longitude":"120.74156310","limited_time":"no","socket":"yes","standing_desk":"yes","mrt":"","open_time":"過年期間有營業"},{"id":"1c6edabb-26ce-4d3d-aeea-23a3256687c6","name":"黑沃咖啡-高工店","city":"taichung","wifi":5,"seat":4,"quiet":3,"tasty":5,"cheap":3,"music":5,"url":"https://www.hwcroasters.com/","address":"台中市南區高工路371號","latitude":"24.11435360","longitude":"120.66736530","limited_time":"no","socket":"maybe","standing_desk":"no","mrt":"","open_time":""},{"id":"1d4357e4-170c-4ff9-8fe6-e158c5f0406a","name":"旅沐豆行","city":"taichung","wifi":5,"seat":5,"quiet":5,"tasty":5,"cheap":5,"music":5,"url":"https://m.facebook.com/CoffeeRemus.ShanXi/?locale2=zh_TW","address":"台中市北區山西路二段236號","latitude":"24.17454100","longitude":"120.67651500","limited_time":"","socket":"maybe","standing_desk":"yes","mrt":"","open_time":""},{"id":"1d795730-565c-4205-a2c4-a8ea643d510e","name":"山时作Sence Project","city":"taichung","wifi":5,"seat":5,"quiet":2,"tasty":0,"cheap":2,"music":5,"url":"","address":"台中市南區復興路三段362號","latitude":"24.13344050","longitude":"120.68166220","limited_time":"no","socket":"no","standing_desk":"yes","mrt":"","open_time":""},{"id":"1d9e7ff2-b0fc-4fa1-b264-cb586e193621","name":"82mm cafe","city":"taichung","wifi":5,"seat":5,"quiet":3.5,"tasty":5,"cheap":4,"music":4,"url":"https://www.facebook.com/82mmCafe","address":"台中市北區三民路三段66號","latitude":"24.14781390","longitude":"120.68350920","limited_time":"no","socket":"yes","standing_desk":"yes","mrt":"","open_time":""},{"id":"1ded8411-cb96-4988-9c77-7bb33da72f29","name":"去化妝室吧 go to the toilet","city":"taichung","wifi":5,"seat":5,"quiet":5,"tasty":5,"cheap":5,"music":5,"url":"www.facebook.com/gototheloo","address":"台中市東區復興路四段20巷11號","latitude":"24.13424210","longitude":"120.68380560","limited_time":"no","socket":"maybe","standing_desk":"no","mrt":"","open_time":""},{"id":"20dae26f-3af1-4b2e-98ed-d6476a3c9426","name":"手樂咖啡","city":"taichung","wifi":5,"seat":5,"quiet":3,"tasty":3,"cheap":3,"music":4,"url":"https://www.facebook.com/s.lcafeonly/","address":"台中市西屯區福林路80號","latitude":"24.18611280","longitude":"120.61459410","limited_time":"no","socket":"maybe","standing_desk":"yes","mrt":"","open_time":"08:30–22:30"},{"id":"20e6171b-6454-446e-b3aa-b3db89e73a29","name":"台灣惠蓀咖啡","city":"taichung","wifi":5,"seat":5,"quiet":4,"tasty":4.5,"cheap":4.5,"music":4.5,"url":"https://www.facebook.com/huisuncoffee","address":"台中市西區華美街494號","latitude":"24.15591400","longitude":"120.66069500","limited_time":"no","socket":"yes","standing_desk":"no","mrt":"","open_time":"週一-五08:00~19:30        週六日09:00~20:30 "},{"id":"229bf6fe-59df-46ad-a8c1-d7993b1c3c32","name":"Modism Café 摩德年代","city":"taichung","wifi":4.5,"seat":5,"quiet":5,"tasty":5,"cheap":5,"music":5,"url":"https://www.facebook.com/Modism.Cafe/","address":"台中市北區大誠街 138 號","latitude":"24.14755270","longitude":"120.68126780","limited_time":"no","socket":"maybe","standing_desk":"no","mrt":"","open_time":"平日13:00-22:00 假日13:00-00:00"},{"id":"22da83e9-00f2-4322-95e8-dab492f3df3a","name":"勁香職人焙煎咖啡","city":"taichung","wifi":5,"seat":5,"quiet":4,"tasty":5,"cheap":5,"music":5,"url":"http://proaroma.weebly.com/","address":"台中市大雅區中清路四段460號","latitude":"24.24083510","longitude":"120.63032110","limited_time":"","socket":"maybe","standing_desk":"yes","mrt":"","open_time":"10:00~18:00"},{"id":"22f7377b-9d50-4802-8157-ccd2cc5377dd","name":"Kusabi+","city":"taichung","wifi":0,"seat":3,"quiet":3,"tasty":4,"cheap":0,"music":0,"url":"https://www.facebook.com/kusabi.plus/","address":"台中市 北區 篤行路316巷2號","latitude":"24.15515000","longitude":"120.67404050","limited_time":"no","socket":"yes","standing_desk":"no","mrt":"","open_time":""},{"id":"23786a24-1106-440b-b8f8-4507cdf7b0b5","name":"黑潮","city":"taichung","wifi":4.5,"seat":5,"quiet":5,"tasty":5,"cheap":4,"music":5,"url":"https://www.facebook.com/coffeelization/","address":"台中市龍井區新興路22巷7號","latitude":"24.18138960","longitude":"120.58961190","limited_time":"","socket":"maybe","standing_desk":"no","mrt":"","open_time":"10:00 - 20:30"},{"id":"249cd868-cd7b-48f5-a527-844ed5fd0459","name":"日青咖啡店","city":"taichung","wifi":0,"seat":0,"quiet":0,"tasty":0,"cheap":0,"music":0,"url":"","address":"台中市豐原區永康街101號","latitude":"24.24279900","longitude":"120.72683600","limited_time":"","socket":"","standing_desk":"","mrt":"","open_time":""},{"id":"2546701d-ba6c-46f9-8fe3-d0cc68424238","name":"好日咖啡","city":"taichung","wifi":5,"seat":5,"quiet":4.5,"tasty":4.5,"cheap":4.5,"music":5,"url":"https://www.facebook.com/GoodDaysGoodCoffee/","address":"台中市西屯區福上巷216弄15號","latitude":"24.17612970","longitude":"120.64802120","limited_time":"no","socket":"maybe","standing_desk":"yes","mrt":"","open_time":"15:00~02:00(不定休)"},{"id":"25c225c3-54fc-44cd-b9d7-fd51eb603408","name":"Fortunate Coffee 世界幸福咖啡豐原店","city":"taichung","wifi":5,"seat":5,"quiet":5,"tasty":5,"cheap":4,"music":5,"url":"","address":"台中市豐原區民生街69號","latitude":"24.24735970","longitude":"120.71695390","limited_time":"no","socket":"yes","standing_desk":"","mrt":"","open_time":""},{"id":"25f222cf-12c0-4c9b-be4c-fba9664197bc","name":"Cherry Espresso 櫻桃計畫","city":"taichung","wifi":5,"seat":5,"quiet":5,"tasty":5,"cheap":5,"music":5,"url":"https://www.facebook.com/cherryespresso/","address":"台中市西屯區西屯路二段270巷1號","latitude":"24.17442010","longitude":"120.64480570","limited_time":"no","socket":"maybe","standing_desk":"no","mrt":"","open_time":""},{"id":"285d96ab-54aa-4bf8-9a8b-308a89059625","name":"弎六手做甜點工作室","city":"taichung","wifi":0,"seat":4,"quiet":4,"tasty":0,"cheap":5,"music":4,"url":"https://www.facebook.com/No.36Loft/","address":"台中市北屯區后庄路212號","latitude":"24.19055190","longitude":"120.66602680","limited_time":"maybe","socket":"","standing_desk":"no","mrt":"","open_time":"營業時間：12:00-18:00 公休日：不定期"},{"id":"28691299-c867-4954-9530-7e3cbb5a378e","name":"Fish Cafe 自家烘焙咖啡館","city":"taichung","wifi":5,"seat":5,"quiet":5,"tasty":5,"cheap":5,"music":5,"url":"https://www.facebook.com/fishcafetw/","address":"台灣台中市龍井區新興路27巷8號","latitude":"24.18067130","longitude":"120.58915180","limited_time":"no","socket":"no","standing_desk":"no","mrt":"","open_time":"12:00~21:00"},{"id":"29700233-ea03-47d1-a37b-80953a122b86","name":"品豆咖啡","city":"taichung","wifi":0,"seat":4,"quiet":4,"tasty":5,"cheap":5,"music":5,"url":"","address":"台中市西區民權路213巷3號1樓","latitude":"24.14717790","longitude":"120.66927880","limited_time":"no","socket":"maybe","standing_desk":"no","mrt":"","open_time":""},{"id":"2a42c40e-2b9c-47c5-b807-f207e4fac1e6","name":"DM Cafe","city":"taichung","wifi":3,"seat":5,"quiet":4,"tasty":5,"cheap":5,"music":5,"url":"https://m.facebook.com/DM-Cafe-416267108508818/","address":"台中市西區民生路225巷11號","latitude":"24.14376880","longitude":"120.66806480","limited_time":"no","socket":"","standing_desk":"no","mrt":"","open_time":""},{"id":"2a45b5eb-4a04-4142-b658-d96d467c957e","name":"欣品咖啡莊園","city":"taichung","wifi":4,"seat":4,"quiet":5,"tasty":4,"cheap":4,"music":4,"url":"https://www.facebook.com/pg/%E6%AC%A3%E5%93%81-%E5%92%96%E5%95%A1-%E5%A4%A9%E7%84%B6-%E7%84%A1%E8%BE%B2%E8%97%A5-485084694876575/about/?ref=page_internal","address":"台中市新社區中興嶺街二段33號","latitude":"24.21566500","longitude":"120.78296990","limited_time":"","socket":"","standing_desk":"yes","mrt":"","open_time":""},{"id":"2a94b4f2-185f-483b-bd1c-6db1fc43aa6f","name":"WAP cafe","city":"taichung","wifi":5,"seat":5,"quiet":4,"tasty":3,"cheap":2,"music":4,"url":"https://www.facebook.com/WAPCAFE/","address":"406台中市太平區樹孝路336巷5號","latitude":"24.15494600","longitude":"120.71953500","limited_time":"no","socket":"maybe","standing_desk":"yes","mrt":"","open_time":""},{"id":"2aaabfa6-5eda-49c8-9d77-7e3897a80b18","name":"Okiedokie cafe","city":"taichung","wifi":5,"seat":4,"quiet":5,"tasty":5,"cheap":4,"music":5,"url":"https://www.facebook.com/OkieDokie.Cafe/","address":"台中市西區華美西街一段52號","latitude":"24.15364600","longitude":"120.65836800","limited_time":"no","socket":"yes","standing_desk":"no","mrt":"","open_time":""},{"id":"2af8036b-4aa3-4772-a77a-01a1c1b53545","name":"Coffee String 咖啡線","city":"taichung","wifi":5,"seat":5,"quiet":4,"tasty":5,"cheap":5,"music":5,"url":"https://www.facebook.com/coffeestring2017/","address":"台中市北屯區北屯路441- 12號","latitude":"24.18018480","longitude":"120.70097800","limited_time":"no","socket":"no","standing_desk":"no","mrt":"","open_time":""},{"id":"2c7764dc-3a2c-4ed8-a758-0bb4883da8f8","name":"Kophy cafe","city":"taichung","wifi":5,"seat":4.5,"quiet":4.5,"tasty":5,"cheap":4,"music":4.5,"url":"https://www.facebook.com/kophycafe/","address":"台中市西區精誠八街1號","latitude":"24.15478660","longitude":"120.65593370","limited_time":"no","socket":"maybe","standing_desk":"","mrt":"","open_time":"每日 10:00-19:00"},{"id":"2d2aaa52-e0d0-401d-8987-efeb7fa65b09","name":"羅布森咖啡書蟲房","city":"taichung","wifi":0,"seat":4,"quiet":3,"tasty":3,"cheap":0,"music":4,"url":"http://www.lobsang-books.com","address":"台中市烏日區溪岸路8-3號","latitude":"24.03602770","longitude":"120.64331050","limited_time":"","socket":"","standing_desk":"no","mrt":"","open_time":"週三~週五 : 11:00~18:00｜週六日 :10:00~19:00｜週一及週二 固定店休"},{"id":"2db8f521-8b0a-42a9-b58a-ac5bffe3f9e0","name":"Sepia coffee 斯比亞咖啡 (朝富店)","city":"taichung","wifi":5,"seat":5,"quiet":5,"tasty":5,"cheap":4,"music":5,"url":"https://www.facebook.com/pg/sepiacoffee242","address":"台中市西屯區朝富路242號","latitude":"24.16378450","longitude":"120.63546690","limited_time":"maybe","socket":"maybe","standing_desk":"no","mrt":"","open_time":"7:30 - 21:30"},{"id":"2dce0af6-6bf0-448e-8eff-11b6e2552409","name":"PAQ Life Camp","city":"taichung","wifi":5,"seat":5,"quiet":5,"tasty":5,"cheap":5,"music":5,"url":"https://www.facebook.com/paq0468/","address":"台中市南屯區文心南五路一段322號","latitude":"24.13233000","longitude":"120.64457900","limited_time":"no","socket":"maybe","standing_desk":"no","mrt":"","open_time":"10:00~21:00"},{"id":"2e4c7cf1-4948-4edf-bd8b-7a0b8b311ab9","name":"咖啡工場","city":"taichung","wifi":5,"seat":5,"quiet":3,"tasty":5,"cheap":5,"music":4,"url":"www.coffeeplus.com.tw","address":"台中市西屯區西屯路二段256巷8號","latitude":"24.17095800","longitude":"120.64736600","limited_time":"no","socket":"maybe","standing_desk":"no","mrt":"","open_time":""},{"id":"31b89aa7-501b-41a1-9427-5ae4add33e4b","name":"私藏小巷自家焙煎咖啡工作室","city":"taichung","wifi":5,"seat":5,"quiet":5,"tasty":5,"cheap":5,"music":5,"url":"","address":"台中市豐原區同安街49巷6號","latitude":"24.24835800","longitude":"120.72501500","limited_time":"no","socket":"yes","standing_desk":"no","mrt":"","open_time":""},{"id":"3209115f-185f-4617-a219-d37831b6cc34","name":"FLORA CAFFE'","city":"taichung","wifi":5,"seat":4.5,"quiet":4,"tasty":4.5,"cheap":4.5,"music":4.5,"url":"https://www.facebook.com/Flora-Caffe-407395976009736/","address":"台中市西區大明街10號","latitude":"24.13916940","longitude":"120.67462350","limited_time":"no","socket":"yes","standing_desk":"yes","mrt":"","open_time":"08：00～19：00"},{"id":"329382c1-9495-4792-aa80-f563a37b1877","name":"H' Cafe","city":"taichung","wifi":5,"seat":5,"quiet":5,"tasty":4,"cheap":4,"music":4,"url":"https://www.facebook.com/Hcafe.make.the.best.coffee.ever/","address":"434台中市龍井區藝術街39巷12號","latitude":"24.18735800","longitude":"120.59396720","limited_time":"no","socket":"maybe","standing_desk":"no","mrt":"","open_time":"之後會再更動"},{"id":"32b1bd08-8db6-440a-ac0d-9eab1c00d35d","name":"JACU cafe","city":"taichung","wifi":5,"seat":5,"quiet":5,"tasty":5,"cheap":5,"music":5,"url":"","address":"台中市大墩四街129號","latitude":"24.14088880","longitude":"120.65192470","limited_time":"no","socket":"yes","standing_desk":"","mrt":"","open_time":""},{"id":"32b3058c-92ec-4f8b-ad00-35610b0eef21","name":"meher cafe","city":"taichung","wifi":5,"seat":5,"quiet":2,"tasty":5,"cheap":2,"music":5,"url":"meher cafe","address":"台中市東區三賢街113號","latitude":"24.14088040","longitude":"120.70675860","limited_time":"maybe","socket":"maybe","standing_desk":"no","mrt":"","open_time":""},{"id":"32efe402-aed0-4707-8e0f-73e098d8f0d5","name":"元生咖啡","city":"taichung","wifi":5,"seat":5,"quiet":5,"tasty":5,"cheap":4,"music":5,"url":"https://www.facebook.com/YuanShengCafe/","address":"台中市西區向上路一段79巷64號","latitude":"24.14518970","longitude":"120.66420140","limited_time":"maybe","socket":"maybe","standing_desk":"no","mrt":"","open_time":"08:00 - 18:00"},{"id":"33a13951-b264-424f-b7ae-b3f786a79b55","name":"瓦卡咖啡","city":"taichung","wifi":0,"seat":0,"quiet":5,"tasty":5,"cheap":5,"music":5,"url":"https://www.facebook.com/wakacafetw/","address":"台中市南屯區向上南路287號","latitude":"24.14487050","longitude":"120.64891790","limited_time":"no","socket":"maybe","standing_desk":"yes","mrt":"","open_time":""},{"id":"342f1188-bc80-4926-93d6-965919206542","name":"多馬咖啡","city":"taichung","wifi":4,"seat":5,"quiet":4.5,"tasty":4.5,"cheap":3.5,"music":4.5,"url":"https://www.facebook.com/Tomarcafe/","address":"台中市北屯區昌平路一段328號","latitude":"24.17368380","longitude":"120.69065900","limited_time":"","socket":"maybe","standing_desk":"yes","mrt":"","open_time":""},{"id":"349961ea-81d2-47a0-8e8e-52401fbc9d76","name":"巫師咖啡","city":"taichung","wifi":4,"seat":4,"quiet":5,"tasty":5,"cheap":3,"music":4,"url":"https://www.facebook.com/winnercoffe/","address":"太平區東平路563號","latitude":"24.13332500","longitude":"120.71767200","limited_time":"maybe","socket":"maybe","standing_desk":"no","mrt":"","open_time":"平日 13:00 - 18:00 / 假日 13:00 - 21:00"},{"id":"34cf03e9-3519-46f8-9278-96e94011b7b5","name":"日漫咖啡大里店","city":"taichung","wifi":5,"seat":5,"quiet":2,"tasty":3,"cheap":1,"music":3,"url":"","address":"台中市大里區永隆路455號","latitude":"24.11343020","longitude":"120.67608930","limited_time":"","socket":"","standing_desk":"","mrt":"","open_time":""},{"id":"353eeed6-d4c1-4280-abda-6a8712807f60","name":"Kibii cafe 氣味咖啡","city":"taichung","wifi":4,"seat":4,"quiet":5,"tasty":5,"cheap":3,"music":3,"url":"https://m.facebook.com/kibiicafe/?locale2=zh_TW","address":"407台中市西屯區惠來路一段161號","latitude":"24.15804300","longitude":"120.63843500","limited_time":"no","socket":"yes","standing_desk":"no","mrt":"","open_time":"12:00–21:00"},{"id":"36b1b7f1-7a4a-4e9e-a802-c4eaaff3d738","name":"寶和咖啡生活館","city":"taichung","wifi":0,"seat":3,"quiet":4,"tasty":5,"cheap":5,"music":5,"url":"https://www.facebook.com/pg/JMCAFE2015","address":" 台中市西區五權四街23號","latitude":"24.13719150","longitude":"120.66444970","limited_time":"maybe","socket":"no","standing_desk":"yes","mrt":"","open_time":"10:00 - 19:00"},{"id":"378308a3-5563-43c6-a3b1-dffa5fc9b987","name":"易杯咖啡烘焙房","city":"taichung","wifi":0,"seat":0,"quiet":0,"tasty":0,"cheap":0,"music":0,"url":"","address":"436台中市清水區高美路188號","latitude":"24.28237400","longitude":"120.57506130","limited_time":"","socket":"","standing_desk":"","mrt":"","open_time":""},{"id":"37cb5973-3851-4df5-ab8f-e9cca7fd2d2e","name":"Dilla Studio 蒔蘿子咖啡選物工作室","city":"taichung","wifi":5,"seat":2,"quiet":4,"tasty":5,"cheap":4,"music":5,"url":"Instagram:dilla_studio_","address":"台中市北區太平路19巷1號之7","latitude":"24.14734320","longitude":"120.68546090","limited_time":"no","socket":"yes","standing_desk":"yes","mrt":"","open_time":""},{"id":"37e45306-05ee-403d-900b-c81f3c6817ef","name":"繆特咖啡ARTMUNICATE CAFE'","city":"taichung","wifi":5,"seat":4.5,"quiet":5,"tasty":5,"cheap":5,"music":5,"url":"https://www.facebook.com/Artmunicate.Cafe/","address":"台中市西屯區國安一路39號","latitude":"24.19028810","longitude":"120.61506950","limited_time":"maybe","socket":"maybe","standing_desk":"no","mrt":"","open_time":"星期五六 9:15~18:00, 20:00~1:00"},{"id":"37f70411-8b6b-41a6-8674-b26a17e704dc","name":"kafeD得勒斯登和岸咖啡","city":"taichung","wifi":5,"seat":5,"quiet":4,"tasty":5,"cheap":4,"music":5,"url":"https://www.facebook.com/DasKafeD/","address":"台中市南屯區大進街382號","latitude":"24.14960300","longitude":"120.65148500","limited_time":"maybe","socket":"maybe","standing_desk":"no","mrt":"","open_time":""},{"id":"38f22c4e-c0a9-4d29-ae20-025550479028","name":"沐咖啡 Mood café","city":"taichung","wifi":0,"seat":0,"quiet":0,"tasty":0,"cheap":0,"music":0,"url":"https://www.facebook.com/Mood-café-沐咖啡-827187380720443","address":"台中市沙鹿區中山路201號","latitude":"24.23733290","longitude":"120.56298900","limited_time":"","socket":"","standing_desk":"","mrt":"","open_time":"11:00 - 21:00"},{"id":"3a07208a-e433-43e2-b65c-6e7aafc0cdde","name":"23弄咖啡","city":"taichung","wifi":0,"seat":0,"quiet":0,"tasty":0,"cheap":0,"music":0,"url":"","address":"436台中市清水區清水街23-8號","latitude":"24.26892300","longitude":"120.57620100","limited_time":"","socket":"","standing_desk":"","mrt":"","open_time":""},{"id":"3a41343b-8242-4bfa-ad1e-be079d0d339a","name":"烘work/咖啡烘作坊","city":"taichung","wifi":5,"seat":5,"quiet":5,"tasty":5,"cheap":5,"music":5,"url":"https://www.facebook.com/hwork.coffee/","address":"台中市西區公館路200號","latitude":"24.13584220","longitude":"120.66826680","limited_time":"","socket":"maybe","standing_desk":"no","mrt":"","open_time":""},{"id":"3b6e9a33-074c-4565-8c5c-d466ce9563b1","name":"覓光咖啡","city":"taichung","wifi":4,"seat":4,"quiet":4,"tasty":5,"cheap":4,"music":3,"url":"","address":"台中市西區台中市西區華美街101號","latitude":"24.14380420","longitude":"120.65863470","limited_time":"no","socket":"maybe","standing_desk":"no","mrt":"","open_time":"10:00–20:00"},{"id":"3ca5ff00-c411-4cb6-b649-d47b78549037","name":"歐舍咖啡 ORSIR COFFEE","city":"taichung","wifi":0,"seat":0,"quiet":0,"tasty":0,"cheap":0,"music":0,"url":"","address":"台中市西區五權路14號","latitude":"24.14330320","longitude":"120.66944390","limited_time":"","socket":"","standing_desk":"","mrt":"","open_time":""},{"id":"3cad0f5c-727c-419e-9355-dd6a1fec0732","name":"Zebra Walking Cafe 斑馬散步咖啡","city":"taichung","wifi":4,"seat":4,"quiet":5,"tasty":3,"cheap":3,"music":5,"url":"https://www.facebook.com/zebrawalk/","address":"Zebra Walking Cafe 斑馬散步咖啡","latitude":"24.13917890","longitude":"120.66514590","limited_time":"yes","socket":"no","standing_desk":"no","mrt":"","open_time":""},{"id":"3ddcf82b-54ea-4167-b4e1-a3f4a38a5849","name":"J.W. Cafe","city":"taichung","wifi":5,"seat":3,"quiet":3,"tasty":5,"cheap":4,"music":4,"url":"https://www.facebook.com/JemmyWangCafe","address":"408 台中市南屯區大墩五街328-1","latitude":"24.14214430","longitude":"120.64785780","limited_time":"maybe","socket":"no","standing_desk":"yes","mrt":"","open_time":"週ㄧ～週五 12:00～18:00 週六、週日 10:00～18:00"},{"id":"3dfa3064-3a2f-4bd1-a244-98183ae66f16","name":"時光","city":"taichung","wifi":0,"seat":0,"quiet":0,"tasty":0,"cheap":0,"music":0,"url":"","address":"400台中市中區仁愛街13巷1號","latitude":"24.14264530","longitude":"120.67502480","limited_time":"","socket":"","standing_desk":"","mrt":"","open_time":""},{"id":"3f20681d-9a1e-4870-849c-f38f1f444c88","name":"山佳伊 3+1 café","city":"taichung","wifi":4,"seat":5,"quiet":5,"tasty":5,"cheap":3,"music":3,"url":"https://www.facebook.com/3plus1cafe","address":"台中市西屯區玉門路80巷1號","latitude":"24.18632940","longitude":"120.61062040","limited_time":"","socket":"","standing_desk":"","mrt":"","open_time":"週二~週日：09:00~18:00 週一公休"},{"id":"419dda32-c9cc-43e7-b896-d309d86acd38","name":"CoffeeEAH","city":"taichung","wifi":5,"seat":5,"quiet":5,"tasty":5,"cheap":4,"music":4,"url":"https://www.facebook.com/coffeeeah","address":"台中市南屯區大墩七街493號","latitude":"24.14404900","longitude":"120.64148300","limited_time":"no","socket":"maybe","standing_desk":"yes","mrt":"","open_time":"12:00～20:00                 星期日公休\n"},{"id":"41d28f69-4ede-40b9-b1cc-a4a930939935","name":"Q morning 手作輕食/咖啡","city":"taichung","wifi":5,"seat":5,"quiet":5,"tasty":4,"cheap":5,"music":5,"url":"https://www.facebook.com/Q-morning-%E6%89%8B%E4%BD%9C%E8%BC%95%E9%A3%9F%E5%92%96%E5%95%A1-606423062866914/","address":"台中市南屯區永春東路285號","latitude":"24.13457890","longitude":"120.64895700","limited_time":"no","socket":"maybe","standing_desk":"yes","mrt":"","open_time":"09:00~18:00"},{"id":"420fe5af-111e-4ed1-93e0-dd538c418462","name":"貓旅行咖啡輕食館","city":"taichung","wifi":4,"seat":5,"quiet":3,"tasty":2,"cheap":3,"music":3,"url":"https://www.facebook.com/cat266Travel","address":"403台中市西區林森路26-6號","latitude":"24.13529300","longitude":"120.67379200","limited_time":"maybe","socket":"yes","standing_desk":"no","mrt":"","open_time":""},{"id":"4393d3e2-0c14-4f8d-8357-b4b209a274d7","name":"mirror cafe競子咖啡","city":"taichung","wifi":5,"seat":5,"quiet":5,"tasty":5,"cheap":4,"music":3,"url":"www.facebook.com/mirrorcafe11","address":"台中市西區模範街23巷11號","latitude":"24.14896850","longitude":"120.66576120","limited_time":"no","socket":"yes","standing_desk":"yes","mrt":"","open_time":""},{"id":"4529d7c6-805c-4377-b9aa-bd9deaed52f8","name":"想想人文空間","city":"taichung","wifi":4.5,"seat":5,"quiet":5,"tasty":5,"cheap":4.5,"music":4.5,"url":"https://www.facebook.com/thinkerscornertaiwan/","address":"台中市中區民權路78號","latitude":"24.13752920","longitude":"120.67831470","limited_time":"no","socket":"yes","standing_desk":"","mrt":"","open_time":"週三~五11:30~19:30 (15:00到16:00午休)        週六11:30~20:00              週日11:30~19:00              週一二公休"},{"id":"46c091a9-c1ec-42f4-9358-c667c10312cb","name":"SolidBean Coffee","city":"taichung","wifi":5,"seat":5,"quiet":4,"tasty":5,"cheap":4,"music":5,"url":"https://www.facebook.com/solidbeancoffeeroasters/","address":"台中市西區精誠三街28號","latitude":"24.15645100","longitude":"120.65776100","limited_time":"no","socket":"yes","standing_desk":"no","mrt":"","open_time":"08:30–18:30"},{"id":"47bcd065-6479-4ef3-bb81-a84d3209d576","name":"Brewband Coffee","city":"taichung","wifi":4.5,"seat":4.5,"quiet":4.5,"tasty":5,"cheap":4.5,"music":5,"url":"https://www.facebook.com/brewbandco","address":"台中市大甲區民生路53巷15號","latitude":"24.34680580","longitude":"120.62542500","limited_time":"no","socket":"yes","standing_desk":"yes","mrt":"","open_time":"13:00 - 22:00"},{"id":"49333cd6-c79a-4987-9cdd-35e188f9a70f","name":"紅櫻桃咖啡館","city":"taichung","wifi":0,"seat":0,"quiet":0,"tasty":0,"cheap":0,"music":0,"url":"","address":"436台中市清水區文昌街1-11號","latitude":"24.26950300","longitude":"120.57750800","limited_time":"","socket":"","standing_desk":"","mrt":"","open_time":""},{"id":"4b8d5b20-ec66-4ba5-aabc-1bce50c3f4a8","name":"原物咖啡公益店","city":"taichung","wifi":5,"seat":5,"quiet":5,"tasty":5,"cheap":5,"music":5,"url":"https://www.facebook.com/oxcafe.tw/","address":"台中市西區華美西街一段3號","latitude":"24.15122790","longitude":"120.65842490","limited_time":"","socket":"yes","standing_desk":"","mrt":"","open_time":""},{"id":"4c14140b-8c85-4779-9488-78e8ed5f7940","name":"1987廚房工作室","city":"taichung","wifi":5,"seat":5,"quiet":5,"tasty":5,"cheap":4.5,"music":5,"url":"https://www.facebook.com/1987jam","address":"台中市西區五權西路一段57巷1弄5號","latitude":"24.13980700","longitude":"120.66353600","limited_time":"no","socket":"yes","standing_desk":"yes","mrt":"","open_time":"每週二公休"},{"id":"4c388c3b-3746-4e3e-ba1b-6c9a417ec9eb","name":"Found 找·咖啡","city":"taichung","wifi":4,"seat":4,"quiet":4,"tasty":4,"cheap":3,"music":4,"url":"https://www.facebook.com/foundcafes/","address":"西區華美街348巷6號","latitude":"24.15135470","longitude":"120.65925870","limited_time":"no","socket":"maybe","standing_desk":"no","mrt":"","open_time":""},{"id":"4d2b3996-b536-43d6-a3a4-e1000d58b20f","name":"Sweet Cafe","city":"taichung","wifi":0,"seat":3,"quiet":5,"tasty":5,"cheap":3,"music":3,"url":"https://www.facebook.com/pages/Sweet-Cafe/143040699093705","address":"台中市南區國光路156之8號","latitude":"24.12770580","longitude":"120.67850950","limited_time":"no","socket":"maybe","standing_desk":"yes","mrt":"","open_time":""},{"id":"4d59cbaa-df04-4b03-a2d9-461b0f5eab48","name":"Colorful Coffee 卡勒芙手感咖啡","city":"taichung","wifi":5,"seat":5,"quiet":5,"tasty":5,"cheap":4.5,"music":5,"url":"https://www.facebook.com/Colorfulcafe2/","address":"台中市西屯區西屯路二段284-6號","latitude":"24.17725360","longitude":"120.64291970","limited_time":"maybe","socket":"yes","standing_desk":"no","mrt":"","open_time":"14:00-22:00                   週日 12:00~18:00               週四休息 "},{"id":"4e17a2a7-642a-450c-99bc-23c1f7ed8f8d","name":"愛喬伊烘焙","city":"taichung","wifi":4,"seat":5,"quiet":4,"tasty":3,"cheap":3,"music":4,"url":"https://www.facebook.com/2magpiesbakehouose/","address":"台中市西區均安街82號","latitude":"24.14690140","longitude":"120.67128300","limited_time":"maybe","socket":"maybe","standing_desk":"no","mrt":"","open_time":""},{"id":"51005db0-9b62-4cea-8633-e845c34029e9","name":"石尚自然探索屋【植物園店】","city":"taichung","wifi":5,"seat":3,"quiet":3,"tasty":5,"cheap":0,"music":0,"url":"https://www.facebook.com/shishangBG/","address":"台中市北區館前路一號．植物園B1","latitude":"24.15745730","longitude":"120.66642640","limited_time":"","socket":"","standing_desk":"","mrt":"","open_time":""},{"id":"51766bff-8b28-494e-894b-41ee239b7126","name":"MAPPER CAFE","city":"taichung","wifi":5,"seat":5,"quiet":5,"tasty":5,"cheap":5,"music":5,"url":"https://www.facebook.com/MapperCafe/","address":"台中市南屯區中台路24-12號","latitude":"24.13683100","longitude":"120.60082800","limited_time":"no","socket":"maybe","standing_desk":"no","mrt":"","open_time":"10:00~17:00"},{"id":"51b16d4e-9e88-4fcd-bf51-7b7136ed014d","name":"LightBeam Coffee Roasters","city":"taichung","wifi":5,"seat":4,"quiet":4,"tasty":5,"cheap":4,"music":4,"url":"https://www.facebook.com/LightBeamCoffeeRoasters/","address":"404台中市北區興進路165號","latitude":"24.15550100","longitude":"120.68964900","limited_time":"no","socket":"no","standing_desk":"no","mrt":"","open_time":"不定期公休"},{"id":"52d04a1b-e5cd-4247-a78b-3154eaa06c2d","name":"Monospace 共同工作空間","city":"taichung","wifi":5,"seat":5,"quiet":4,"tasty":5,"cheap":5,"music":5,"url":"https://www.facebook.com/monospace.tw/","address":"台中市西區臺灣大道二段2號16F-2","latitude":"24.14796120","longitude":"120.67350560","limited_time":"no","socket":"yes","standing_desk":"yes","mrt":"","open_time":""},{"id":"53ceb453-d8b6-4e9a-bbac-8ee71b753156","name":"single place coffee lab.","city":"taichung","wifi":5,"seat":5,"quiet":5,"tasty":5,"cheap":5,"music":5,"url":"https://m.facebook.com/singleplacecoffeelab/","address":"台中市北區一中街167巷3號","latitude":"24.15137750","longitude":"120.68579940","limited_time":"no","socket":"yes","standing_desk":"no","mrt":"","open_time":""},{"id":"53da0788-717f-40ef-b833-d54d54f2e1b2","name":"盧仕 Luscoffee","city":"taichung","wifi":4.5,"seat":4.5,"quiet":5,"tasty":5,"cheap":4.5,"music":5,"url":"https://www.facebook.com/%E7%9B%A7%E4%BB%95-LusCoffee-302070613335588/?fref=ts","address":"台中市西區美村路一段771巷16號","latitude":"24.13306620","longitude":"120.66227620","limited_time":"maybe","socket":"maybe","standing_desk":"no","mrt":"","open_time":""},{"id":"542db829-11e4-4525-8733-82c12710ba94","name":"六號貓洞","city":"taichung","wifi":4,"seat":4,"quiet":4,"tasty":4,"cheap":3,"music":5,"url":"https://www.facebook.com/catlair6/","address":"台中市北區南京東路2段13號","latitude":"24.15264770","longitude":"120.69769170","limited_time":"no","socket":"no","standing_desk":"no","mrt":"","open_time":"15:00 - 22:00"},{"id":"56239d36-05ce-469f-beec-1289383ba4f5","name":"伯朗咖啡館 (東海大學店)","city":"taichung","wifi":5,"seat":5,"quiet":4,"tasty":5,"cheap":4,"music":4,"url":"","address":"台中市西屯區台灣大道四段1727號 東海大學圖書館1樓","latitude":"24.17973910","longitude":"120.59610940","limited_time":"no","socket":"maybe","standing_desk":"no","mrt":"","open_time":""},{"id":"563693bc-10af-4f93-b646-4d7c7ab324fb","name":"家咖啡","city":"taichung","wifi":5,"seat":5,"quiet":5,"tasty":5,"cheap":5,"music":5,"url":"","address":"台中市西區精誠路3-1號","latitude":"24.15673590","longitude":"120.65706010","limited_time":"no","socket":"yes","standing_desk":"yes","mrt":"","open_time":""},{"id":"56428521-2584-4987-8759-4bebaf6872ea","name":"以便以謝咖啡","city":"taichung","wifi":5,"seat":3,"quiet":3,"tasty":5,"cheap":5,"music":5,"url":"https://www.facebook.com/papicoffee","address":"台中市中區繼光街59號","latitude":"24.13849230","longitude":"120.68179810","limited_time":"no","socket":"maybe","standing_desk":"no","mrt":"","open_time":"08:00~15:30"},{"id":"5690c398-425c-40a7-8cf5-b00cb6b90392","name":"凱度高空咖啡","city":"taichung","wifi":3,"seat":5,"quiet":4,"tasty":5,"cheap":5,"music":4,"url":"凱度高空咖啡館","address":"台中市西區台灣大道二段2號20樓","latitude":"24.14824210","longitude":"120.67354060","limited_time":"no","socket":"maybe","standing_desk":"yes","mrt":"","open_time":""},{"id":"57bb09ec-a2e7-49c5-b27d-bd1a2d00f2af","name":"珈琲院","city":"taichung","wifi":5,"seat":4.5,"quiet":5,"tasty":5,"cheap":5,"music":5,"url":"https://www.facebook.com/coffeeareatw","address":"403台中市西區存中街165號","latitude":"24.14107720","longitude":"120.65649540","limited_time":"no","socket":"no","standing_desk":"no","mrt":"","open_time":""},{"id":"57cb3eb8-3972-47b0-91b5-3395aa33790d","name":"樂安咖啡Lean coffee","city":"taichung","wifi":4,"seat":5,"quiet":5,"tasty":4,"cheap":3,"music":4,"url":"https://www.facebook.com/pg/%E6%A8%82%E5%AE%89-%E5%92%96%E5%95%A1%E7%94%9C%E9%A3%9F%E5%B7%A5%E4%BD%9C%E5%AE%A4-136232003158635/about/","address":"西屯區福雅路128巷48號","latitude":"24.18506030","longitude":"120.62049200","limited_time":"no","socket":"no","standing_desk":"yes","mrt":"","open_time":""},{"id":"5921e3be-82ca-43bf-9ffd-1c195ad39118","name":"豬油、咖啡與閱讀","city":"taichung","wifi":0,"seat":5,"quiet":5,"tasty":5,"cheap":5,"music":5,"url":"https://www.facebook.com/ti.iucaffenreading/","address":"台中市清水區中正街71號","latitude":"24.26301750","longitude":"120.57039750","limited_time":"no","socket":"maybe","standing_desk":"yes","mrt":"","open_time":"9:00~21:00"},{"id":"5965231e-58db-445c-a895-a04d70e70978","name":"巴菲特咖啡","city":"taichung","wifi":0,"seat":0,"quiet":0,"tasty":0,"cheap":0,"music":0,"url":"","address":"436台中市清水區大街路105號","latitude":"24.27020500","longitude":"120.57901500","limited_time":"","socket":"","standing_desk":"","mrt":"","open_time":""},{"id":"5a579b54-7fc5-4f57-b5d1-78456850828d","name":"答默咖啡工作室","city":"taichung","wifi":5,"seat":5,"quiet":4,"tasty":5,"cheap":5,"music":5,"url":"https://www.facebook.com/DMCoffeeWorkshop/","address":"台中市西屯區國安一路165號","latitude":"24.19179270","longitude":"120.61177170","limited_time":"no","socket":"yes","standing_desk":"yes","mrt":"","open_time":""},{"id":"5abc1ccf-f699-4bd5-a4e0-57fd698bacaa","name":"亨利貞精品咖啡館","city":"taichung","wifi":5,"seat":5,"quiet":4.5,"tasty":5,"cheap":5,"music":5,"url":"https://www.facebook.com/henryjanecoffee/?fref=ts","address":"臺中市大里區西榮路203號","latitude":"24.10952680","longitude":"120.68622580","limited_time":"no","socket":"maybe","standing_desk":"no","mrt":"","open_time":"12:00~20:00"},{"id":"5bfcf70e-c6e4-4194-a353-312dbf2d50bf","name":"小心地滑","city":"taichung","wifi":0,"seat":0,"quiet":0,"tasty":0,"cheap":0,"music":0,"url":"https://www.facebook.com/cautionwetfloorcafe/","address":"台中市南區興大路145號 中興大學圖書館B1興閱坊","latitude":"24.11975130","longitude":"120.67426000","limited_time":"no","socket":"maybe","standing_desk":"","mrt":"","open_time":"週六營業地點在雲平樓F03"},{"id":"5c37d887-2a8f-4c5d-88c0-5e835d76c5ae","name":"旅行喫茶店","city":"taichung","wifi":5,"seat":5,"quiet":5,"tasty":5,"cheap":4,"music":5,"url":"https://zh-tw.facebook.com/%E6%97%85%E8%A1%8C%E5%96%AB%E8%8C%B6%E5%BA%97-777210312337746/","address":"臺中市西區西屯路一段147-13號(搜尋西屯路一段170號潮州雞湯鍋，正對面巷子裡)","latitude":"24.15244500","longitude":"120.67076400","limited_time":"no","socket":"yes","standing_desk":"yes","mrt":"","open_time":"偶爾出國找好料公休日要參考官網"},{"id":"5ceda4d2-9731-4d0e-88b8-b0d781744b6c","name":"十一精品咖啡 Potion 11 Cafe","city":"taichung","wifi":5,"seat":5,"quiet":4,"tasty":5,"cheap":5,"music":4,"url":"https://www.facebook.com/potion11cafe","address":"台中市西區大墩11街21號","latitude":"24.14883590","longitude":"120.65393040","limited_time":"maybe","socket":"no","standing_desk":"no","mrt":"","open_time":""},{"id":"5dadf42b-1c02-4ea5-bb18-efcdfcc3037a","name":"大門咖啡","city":"taichung","wifi":5,"seat":4,"quiet":2,"tasty":4,"cheap":5,"music":3,"url":"https://www.facebook.com/bigdoorcoffee/","address":"台中市大里區仁福街10號","latitude":"24.09491460","longitude":"120.70057520","limited_time":"maybe","socket":"yes","standing_desk":"no","mrt":"","open_time":""},{"id":"5e27a9bd-a4e3-433c-b329-afa05686ceb1","name":"溪邊十三","city":"taichung","wifi":0,"seat":5,"quiet":5,"tasty":5,"cheap":4,"music":4,"url":"","address":"台中市南屯區環中路五段200號","latitude":"24.11783980","longitude":"120.63921980","limited_time":"no","socket":"maybe","standing_desk":"yes","mrt":"","open_time":""},{"id":"5e952c8c-1196-49fb-af8b-8bdfe9ecb78b","name":"Cafe LuLu 自家任性烘焙舘 五常店","city":"taichung","wifi":0,"seat":0,"quiet":0,"tasty":5,"cheap":0,"music":0,"url":"http://www.cafelulu.com.tw/","address":"台中市北區五常街217號","latitude":"24.16003030","longitude":"120.67983430","limited_time":"no","socket":"maybe","standing_desk":"yes","mrt":"","open_time":"1-9 pm"},{"id":"5f61bd7c-0de1-480d-9d28-79bb568b29ef","name":"Nunchuk 拿翹咖啡","city":"taichung","wifi":4.5,"seat":4.5,"quiet":4,"tasty":4.5,"cheap":4.5,"music":4.5,"url":"https://www.facebook.com/SOCIAL.LUBRICATION/","address":"台中市西區中興街285巷13弄13號","latitude":"24.15347600","longitude":"120.66246900","limited_time":"","socket":"maybe","standing_desk":"yes","mrt":"","open_time":"週日到週三14:00 - 23:30、週五到週六14:00-24:00、週四公休"},{"id":"60160718-86aa-49c1-9030-b838b0098035","name":"Now Place","city":"taichung","wifi":5,"seat":3,"quiet":4,"tasty":4,"cheap":3,"music":4,"url":"https://www.facebook.com/Nowplace.fc/","address":"台中市西屯區福上巷321-1號","latitude":"24.17502090","longitude":"120.64579840","limited_time":"no","socket":"maybe","standing_desk":"no","mrt":"","open_time":""},{"id":"61ad0967-682b-4bba-aaf9-b93dbeeea6a0","name":"新銳咖啡國泰店","city":"taichung","wifi":5,"seat":4,"quiet":4,"tasty":4,"cheap":5,"music":4,"url":"","address":"404台中市北區國泰街36號","latitude":"24.15997880","longitude":"120.69757070","limited_time":"no","socket":"maybe","standing_desk":"yes","mrt":"","open_time":""},{"id":"61f57dd6-de9b-4a8f-8413-a368b9b8f5a1","name":"町走馬","city":"taichung","wifi":4,"seat":5,"quiet":5,"tasty":5,"cheap":5,"music":5,"url":"","address":"臺中市西區大全街52號","latitude":"24.13596570","longitude":"120.67089080","limited_time":"no","socket":"no","standing_desk":"no","mrt":"","open_time":""},{"id":"62cddb0f-a160-4df2-8cb5-b2624141255c","name":"Cafe PPM","city":"taichung","wifi":5,"seat":5,"quiet":4.5,"tasty":5,"cheap":5,"music":5,"url":"https://www.facebook.com/CafePPM/","address":"台中市大里區自立路91號","latitude":"24.10349100","longitude":"120.69847140","limited_time":"maybe","socket":"yes","standing_desk":"yes","mrt":"","open_time":"11:00 - 20:30"},{"id":"634cf8d8-8878-4091-9cc8-7cbca951b5a1","name":"漫時意境","city":"taichung","wifi":5,"seat":5,"quiet":5,"tasty":5,"cheap":4,"music":4,"url":"https://www.facebook.com/LHTeaTime/?ref=aymt_homepage_panel","address":"台中市北屯區建和路一段20號","latitude":"24.15851200","longitude":"120.71701030","limited_time":"no","socket":"yes","standing_desk":"no","mrt":"","open_time":"預約式及週五~週二: 14:00 - 19:30"},{"id":"634d3a9a-491b-4b3a-ad5f-e710f8355011","name":"目覺咖啡 trio店","city":"taichung","wifi":5,"seat":4,"quiet":3,"tasty":4,"cheap":3,"music":5,"url":"","address":"台中市西區精誠七街1號","latitude":"24.15515030","longitude":"120.65622290","limited_time":"no","socket":"maybe","standing_desk":"no","mrt":"","open_time":""},{"id":"63cd50c6-30be-4157-af79-9dabaebe2501","name":"【歐客佬】台中太原店創始店","city":"taichung","wifi":5,"seat":5,"quiet":4,"tasty":5,"cheap":4,"music":5,"url":"https://www.facebook.com/oklaocoffee/?ref=bookmarks","address":"台中市北區崇德路一段517號","latitude":"24.16494500","longitude":"120.68477700","limited_time":"no","socket":"maybe","standing_desk":"no","mrt":"","open_time":""},{"id":"63cf8078-a5a6-4f50-b4cb-bee44119cc28","name":"慢水","city":"taichung","wifi":0,"seat":0,"quiet":0,"tasty":4,"cheap":5,"music":5,"url":"https://www.facebook.com/pg/%E6%85%A2%E6%B0%B4-315590232549608/about/?ref=page_internal","address":"台中市龍井區藝術南街五巷一號","latitude":"24.18699760","longitude":"120.59450280","limited_time":"no","socket":"no","standing_desk":"no","mrt":"","open_time":""},{"id":"648ed9a5-08e1-4bf8-867e-74a5951908d6","name":"Cantata Kahve 坎塔塔咖啡坊","city":"taichung","wifi":5,"seat":4,"quiet":5,"tasty":5,"cheap":4,"music":5,"url":"https://www.facebook.com/cantatakahve/","address":"臺中市西屯區文華路162巷36號","latitude":"24.18343910","longitude":"120.64700360","limited_time":"no","socket":"maybe","standing_desk":"no","mrt":"","open_time":""},{"id":"655c2613-38be-48e7-95ff-147447aee588","name":"喝咖啡","city":"taichung","wifi":5,"seat":4.5,"quiet":4,"tasty":4.5,"cheap":4,"music":4.5,"url":"https://www.facebook.com/Living.tw/","address":"台中市東興路一段29號","latitude":"24.11961800","longitude":"120.65628600","limited_time":"","socket":"maybe","standing_desk":"no","mrt":"","open_time":"週一~週五 08:00-22:00 週六、週日 08:00-18:00"},{"id":"6571fa23-417d-4b49-9de3-70219975f665","name":"東麗風店茶花咖啡","city":"taichung","wifi":5,"seat":3,"quiet":3,"tasty":5,"cheap":0,"music":0,"url":"https://www.facebook.com/donlicamellia243/","address":"台中南屯區文心南五路三段243號","latitude":"24.14406670","longitude":"120.63081820","limited_time":"","socket":"","standing_desk":"","mrt":"","open_time":""},{"id":"68698d61-40aa-4b1c-80d0-894100c2b2c0","name":"Roundabout Café","city":"taichung","wifi":4,"seat":3,"quiet":3,"tasty":4,"cheap":3,"music":5,"url":"https://www.facebook.com/roundaboutcoffee/","address":"台中市西區大和路73號","latitude":"24.15002340","longitude":"120.66751790","limited_time":"maybe","socket":"maybe","standing_desk":"yes","mrt":"","open_time":"平日11:00~21:00，假日9:00~21:00"},{"id":"68dca33f-0b0d-48d1-b20f-606a14a2ee79","name":"Elk Cafe  路，鹿咖啡","city":"taichung","wifi":4,"seat":4,"quiet":5,"tasty":5,"cheap":4,"music":4,"url":"https://www.facebook.com/Elk-Cafe-%E8%B7%AF%E9%B9%BF%E5%92%96%E5%95%A1-117920325225006/","address":"412 台中市大里區環中東路五段628-1號","latitude":"24.11652890","longitude":"120.69984470","limited_time":"no","socket":"maybe","standing_desk":"yes","mrt":"","open_time":"13:00 - 21:00"},{"id":"69b90fe0-6d58-40b0-9586-5e3cf3ea98be","name":"招財咖啡舖","city":"taichung","wifi":0,"seat":0,"quiet":0,"tasty":0,"cheap":0,"music":0,"url":"","address":"台中市西區梅川西路一段37號","latitude":"24.14313900","longitude":"120.66808400","limited_time":"","socket":"","standing_desk":"","mrt":"","open_time":""},{"id":"6a3ce865-b6b8-487c-801b-94a6af0fd163","name":"edia cafe","city":"taichung","wifi":5,"seat":5,"quiet":5,"tasty":5,"cheap":3,"music":4,"url":"https://www.facebook.com/ediacafe","address":"台中市南屯區大進街691號","latitude":"24.15591860","longitude":"120.65201930","limited_time":"no","socket":"","standing_desk":"no","mrt":"","open_time":""},{"id":"6abd0fba-0296-457c-a9de-dceb68878c6d","name":"畢洛雅精選咖啡館","city":"taichung","wifi":5,"seat":5,"quiet":5,"tasty":5,"cheap":5,"music":4,"url":"畢洛雅精選咖啡","address":"台中市西區林森路194號","latitude":"24.13992050","longitude":"120.66835890","limited_time":"maybe","socket":"yes","standing_desk":"no","mrt":"","open_time":""},{"id":"6c546ce0-5911-477d-901f-35aca47e7d39","name":"中城咖啡","city":"taichung","wifi":5,"seat":5,"quiet":5,"tasty":5,"cheap":5,"music":5,"url":"https://www.facebook.com/midtownorgcafe/","address":"台中市南屯區五權西路二段1120號","latitude":"24.14824390","longitude":"120.62775790","limited_time":"no","socket":"yes","standing_desk":"yes","mrt":"","open_time":""},{"id":"6d947f21-4dc5-419a-b564-0fd8f17258e4","name":"Cafe Muah","city":"taichung","wifi":5,"seat":3,"quiet":4,"tasty":5,"cheap":4,"music":5,"url":"https://www.facebook.com/muahxmuah/","address":"台中市南屯區大墩十七街35號","latitude":"24.15530600","longitude":"120.65015770","limited_time":"maybe","socket":"yes","standing_desk":"yes","mrt":"","open_time":"平日08:00 -18:00；假日09:00-18:00"},{"id":"6fad0548-7e7b-49bd-8e6b-bfcca0f9b58d","name":"林倍咖啡","city":"taichung","wifi":5,"seat":5,"quiet":5,"tasty":5,"cheap":5,"music":5,"url":"https://www.facebook.com/linbeicoffee/","address":"台中市北區天津路二段157號","latitude":"24.16993500","longitude":"120.67816100","limited_time":"no","socket":"yes","standing_desk":"yes","mrt":"","open_time":""},{"id":"7047fead-0483-412a-ba76-bab7b6cc98ef","name":"時間軸食宿工坊","city":"taichung","wifi":5,"seat":5,"quiet":5,"tasty":5,"cheap":5,"music":5,"url":"https://www.facebook.com/timelinecafestudio/","address":"台中市龍井區遠東街204巷18號","latitude":"24.18837120","longitude":"120.59591120","limited_time":"no","socket":"maybe","standing_desk":"yes","mrt":"","open_time":""},{"id":"704c5b30-d24d-4fa7-891b-42585677e15d","name":"民生咖啡 People & Life.Cafe","city":"taichung","wifi":5,"seat":4.5,"quiet":5,"tasty":5,"cheap":5,"music":5,"url":"https://www.facebook.com/People.Life.Cafe","address":"台中市西區民生路384號","latitude":"24.14441540","longitude":"120.66126260","limited_time":"no","socket":"maybe","standing_desk":"no","mrt":"","open_time":"平日：11:00~20:00 假日：11:00~22:00 公休日：星期一"},{"id":"70b0d853-7a05-4208-967d-381a67c7a3e5","name":"amazing63","city":"taichung","wifi":5,"seat":4,"quiet":2,"tasty":5,"cheap":5,"music":4,"url":"https://www.facebook.com/Amazing63coffee/?fref=ts","address":"台中市豐原區向陽路6巷3號","latitude":"24.25165300","longitude":"120.72132500","limited_time":"no","socket":"maybe","standing_desk":"yes","mrt":"","open_time":"下午1點到晚上9點，禮拜三公休"},{"id":"73c1ce24-6bc1-4905-993f-0915e357e584","name":"啡熊咖啡工坊","city":"taichung","wifi":5,"seat":5,"quiet":5,"tasty":5,"cheap":4,"music":5,"url":"https://www.facebook.com/coffeebear613/","address":"台中市沙鹿區光華路169號","latitude":"24.23309690","longitude":"120.56211090","limited_time":"maybe","socket":"maybe","standing_desk":"no","mrt":"","open_time":""},{"id":"73d844da-a4a2-4c7f-bec9-cb9a9dad527b","name":"復興咖啡交易所","city":"taichung","wifi":5,"seat":5,"quiet":4,"tasty":5,"cheap":4,"music":4,"url":"https://www.instagram.com/fxcecoffee/","address":"臺中市東區立德街18號","latitude":"24.13514420","longitude":"120.68604430","limited_time":"","socket":"maybe","standing_desk":"no","mrt":"","open_time":""},{"id":"740f7c11-6aa6-4142-af84-7333dc9095b2","name":"pifferia 劈飛利亞","city":"taichung","wifi":5,"seat":5,"quiet":5,"tasty":5,"cheap":5,"music":5,"url":"https://www.facebook.com/pifferia/","address":"台中市南區台中路62號","latitude":"24.13401240","longitude":"120.68299550","limited_time":"no","socket":"maybe","standing_desk":"yes","mrt":"","open_time":"半夜視來客情況延長時間"},{"id":"759dfde1-bed1-4b10-b668-0211d3d57043","name":"貓爪子咖啡 Cat's Claw Brunch & Cafe'","city":"taichung","wifi":5,"seat":4.5,"quiet":4,"tasty":5,"cheap":4.5,"music":5,"url":"https://www.facebook.com/CatsClawCafe/","address":"台中市北區大德街131號","latitude":"24.16048900","longitude":"120.67847510","limited_time":"no","socket":"yes","standing_desk":"no","mrt":"","open_time":"10:00 - 21:00 週一公休"},{"id":"75fe6e38-9395-4207-bc5b-21f260cdefda","name":"好事發生- Function House ","city":"taichung","wifi":3,"seat":5,"quiet":3,"tasty":5,"cheap":4,"music":5,"url":"https://www.facebook.com/housefuction/?fref=ts","address":"台中市北區五義街149號","latitude":"24.15402690","longitude":"120.68116300","limited_time":"no","socket":"yes","standing_desk":"yes","mrt":"","open_time":""},{"id":"76308da8-bcad-485a-bba4-761be5de8a1b","name":"EZ 咖啡","city":"taichung","wifi":0,"seat":5,"quiet":3,"tasty":4,"cheap":5,"music":2,"url":"","address":"台中市北區健行路372號","latitude":"24.15933690","longitude":"120.68252600","limited_time":"no","socket":"no","standing_desk":"no","mrt":"","open_time":"7:30~17:00"},{"id":"78ff34f0-356f-42de-8f6f-76f9d1376337","name":"咖啡意志","city":"taichung","wifi":0,"seat":0,"quiet":0,"tasty":0,"cheap":0,"music":0,"url":"https://www.facebook.com/coffeewill/","address":"台中市西屯區至善路125號","latitude":"24.17601800","longitude":"120.64259600","limited_time":"","socket":"","standing_desk":"","mrt":"","open_time":"週一～三、五～日：13:30 - 22:30 週四公休"},{"id":"7a7cda58-2c69-4dc7-9d05-48184aace615","name":"TORAtart","city":"taichung","wifi":0,"seat":4,"quiet":2,"tasty":5,"cheap":3,"music":3,"url":"https://www.facebook.com/TORAtart96/","address":"台中市西區日興街96號","latitude":"24.14925370","longitude":"120.67386690","limited_time":"no","socket":"yes","standing_desk":"no","mrt":"","open_time":""},{"id":"7b79f52f-39f4-45ed-82a5-0582a9f784da","name":"青川流","city":"taichung","wifi":0,"seat":0,"quiet":0,"tasty":0,"cheap":0,"music":0,"url":"","address":"436台中市清水區清水街22號","latitude":"24.26937140","longitude":"120.57605840","limited_time":"","socket":"","standing_desk":"","mrt":"","open_time":""},{"id":"7baeae5f-c9ca-4bf8-9175-b3a6bb3416d7","name":"Belle Journée貝爵妮法式點心坊","city":"taichung","wifi":0,"seat":0,"quiet":0,"tasty":0,"cheap":0,"music":0,"url":"https://www.facebook.com/Patisserie.BJ/","address":"403台灣台中市西區精誠五街34號","latitude":"24.15511900","longitude":"120.65779300","limited_time":"maybe","socket":"maybe","standing_desk":"no","mrt":"","open_time":""},{"id":"7c244255-357e-4090-9f6e-1f27cd860674","name":"澄石咖啡蔬食廚坊","city":"taichung","wifi":4,"seat":4,"quiet":3,"tasty":0,"cheap":5,"music":4,"url":"https://www.facebook.com/ChengShiShuShiKaFeiChuFangchensvegDongXingDian/","address":"台中巿南屯區東興路三段221號","latitude":"24.15251900","longitude":"120.65302110","limited_time":"maybe","socket":"yes","standing_desk":"no","mrt":"","open_time":"9:00 - 22:00"},{"id":"7c9233e2-ef95-40bb-a9ab-d3ff5572418c","name":"Café de Alluré 薾麓咖啡","city":"taichung","wifi":0,"seat":0,"quiet":0,"tasty":0,"cheap":0,"music":0,"url":"https://www.facebook.com/AllureSpecialtyCoffee/","address":"406台中市北屯區中清西二街25號","latitude":"24.17436000","longitude":"120.66833100","limited_time":"no","socket":"no","standing_desk":"no","mrt":"","open_time":""},{"id":"7e88acda-a731-4c5f-9806-45c6aaeb0438","name":"漫森林咖啡","city":"taichung","wifi":0,"seat":0,"quiet":0,"tasty":0,"cheap":0,"music":0,"url":"","address":"406台灣台中市北屯區華美西街二段420號","latitude":"24.17410100","longitude":"120.66776980","limited_time":"no","socket":"no","standing_desk":"","mrt":"","open_time":""},{"id":"7f8cb1b4-bdb6-49b7-9639-8e16e9e9ce94","name":"彼思咖啡","city":"taichung","wifi":4,"seat":5,"quiet":4,"tasty":5,"cheap":5,"music":4,"url":"https://www.facebook.com/pages/category/Coffee-Shop/%E5%BD%BC%E6%80%9D%E5%92%96%E5%95%A1-1670797982998148/","address":" 台中市南區德富路82號","latitude":"24.12021900","longitude":"120.65397870","limited_time":"no","socket":"maybe","standing_desk":"yes","mrt":"","open_time":""},{"id":"8019f58a-f53b-4e82-b4c2-6db8380a015a","name":"來福好事 LAUGH HOUSE","city":"taichung","wifi":5,"seat":4,"quiet":4,"tasty":4,"cheap":4,"music":4,"url":"https://www.facebook.com/laughhouse.tc","address":"台中市西區忠誠街70號","latitude":"24.15258780","longitude":"120.66095410","limited_time":"no","socket":"yes","standing_desk":"yes","mrt":"","open_time":"1100-1930"},{"id":"8161daac-14ad-4e33-b2a6-efee2a7cb230","name":"綠蓋茶館 - 河南店","city":"taichung","wifi":5,"seat":5,"quiet":2,"tasty":0,"cheap":3,"music":3,"url":"","address":"407台中市西屯區河南路二段278號號","latitude":"24.17503820","longitude":"120.64887050","limited_time":"no","socket":"yes","standing_desk":"no","mrt":"","open_time":""},{"id":"8371e455-585c-40b7-b5b7-8d9adc488df2","name":"路易莎咖啡","city":"taichung","wifi":0,"seat":0,"quiet":0,"tasty":0,"cheap":0,"music":0,"url":"","address":"台中市北區五常街178號","latitude":"24.15891410","longitude":"120.68010740","limited_time":"","socket":"","standing_desk":"","mrt":"","open_time":""},{"id":"840987b6-3041-4451-9c0d-d5d4e540c439","name":"Platform 13號月台","city":"taichung","wifi":5,"seat":5,"quiet":5,"tasty":5,"cheap":5,"music":5,"url":"https://www.facebook.com/platform13cafe/","address":"40857台中市南屯區大墩一街98號","latitude":"24.13814200","longitude":"120.65154300","limited_time":"no","socket":"maybe","standing_desk":"yes","mrt":"","open_time":""},{"id":"846e5135-5657-444b-b7cf-3362ae95bcf5","name":"老陳咖啡L'espace caf'e","city":"taichung","wifi":0,"seat":0,"quiet":0,"tasty":0,"cheap":0,"music":0,"url":"","address":"台中市西區五權七街52號","latitude":"24.13524400","longitude":"120.66350400","limited_time":"","socket":"","standing_desk":"","mrt":"","open_time":""},{"id":"85a7665f-96d1-4e8e-9252-692eff5822b0","name":"多馬咖啡大坑店","city":"taichung","wifi":4,"seat":4,"quiet":5,"tasty":5,"cheap":4,"music":4,"url":"https://www.facebook.com/TomarDakeng/","address":"406台中市北屯區東山路二段33號","latitude":"24.17937410","longitude":"120.74017800","limited_time":"no","socket":"maybe","standing_desk":"no","mrt":"","open_time":""},{"id":"8748776e-e5e8-4f7e-b05f-6007d6002d4c","name":"Our café 奧兒咖啡","city":"taichung","wifi":5,"seat":5,"quiet":5,"tasty":5,"cheap":5,"music":5,"url":"https://www.facebook.com/ourcafe88/","address":" 台中市大弘街82號1F","latitude":"24.16391100","longitude":"120.66051540","limited_time":"no","socket":"yes","standing_desk":"yes","mrt":"","open_time":""},{"id":"87a3c048-5a9a-4f25-972f-dc65c8503b3a","name":"小幸福咖啡","city":"taichung","wifi":5,"seat":4,"quiet":2.5,"tasty":4.5,"cheap":4,"music":4,"url":"http://mildcafe2015.pixnet.net/blog","address":"台中市豐原區西勢路690號","latitude":"24.23485740","longitude":"120.70035400","limited_time":"no","socket":"yes","standing_desk":"","mrt":"","open_time":"09:00~18:00 週一公休"},{"id":"87c33496-72b8-4766-a70f-ed61af81829a","name":"沃咖啡","city":"taichung","wifi":5,"seat":5,"quiet":4.5,"tasty":5,"cheap":5,"music":5,"url":"https://zh-tw.facebook.com/worldrich.coffee/","address":"台中市西屯區西屯路二段10-8號","latitude":"24.16369640","longitude":"120.66256840","limited_time":"no","socket":"maybe","standing_desk":"yes","mrt":"","open_time":"AM07:30~PM08:00"},{"id":"8b663d07-f1da-4de1-a4ac-d33caf7a5c14","name":"雲道咖啡_末廣門市","city":"taichung","wifi":4,"seat":5,"quiet":5,"tasty":3,"cheap":3,"music":3,"url":"https://m.facebook.com/coffeetree87","address":"台中市豐原區豐陽路87號","latitude":"24.25132330","longitude":"120.72287080","limited_time":"no","socket":"yes","standing_desk":"yes","mrt":"","open_time":""},{"id":"8b726b48-7c20-4167-b643-ea1d801902c1","name":"Raven Coffee","city":"taichung","wifi":5,"seat":5,"quiet":5,"tasty":5,"cheap":5,"music":5,"url":"https://www.facebook.com/ravencoffee2017/","address":"台中市西屯區河南路二段301巷58號","latitude":"24.17212200","longitude":"120.64804970","limited_time":"no","socket":"yes","standing_desk":"yes","mrt":"","open_time":""},{"id":"8d694e1f-e28f-4c7a-9551-0aafdc7a6a20","name":"咖啡葉","city":"taichung","wifi":4,"seat":4,"quiet":3,"tasty":5,"cheap":4,"music":4,"url":"https://www.facebook.com/coffeeyeh116/","address":"台中市豐原市西安街95-5號","latitude":"24.24904130","longitude":"120.71207450","limited_time":"no","socket":"maybe","standing_desk":"no","mrt":"","open_time":"12:30 - 22:30"},{"id":"8daa3bb6-5901-4404-a56d-8548beb64441","name":"Coffee Stopover","city":"taichung","wifi":5,"seat":4.5,"quiet":4.5,"tasty":5,"cheap":5,"music":5,"url":"https://www.facebook.com/coffeestopover/","address":"台中市西區民權路217巷24號","latitude":"24.14799400","longitude":"120.66800800","limited_time":"no","socket":"maybe","standing_desk":"no","mrt":"","open_time":"11:00～20:00               星期日公休"},{"id":"8db7e929-b519-4b2e-823d-205a8e6f1061","name":"巴菲特咖啡館","city":"taichung","wifi":0,"seat":0,"quiet":0,"tasty":0,"cheap":0,"music":0,"url":"","address":"436台中市清水區忠貞路21號2樓","latitude":"24.27104750","longitude":"120.55840360","limited_time":"","socket":"","standing_desk":"","mrt":"","open_time":""},{"id":"8dea5bf1-a80c-4294-91fe-4970562ad0ad","name":" Yorimichi 順道菓子店","city":"taichung","wifi":5,"seat":4,"quiet":5,"tasty":5,"cheap":3,"music":5,"url":"https://www.facebook.com/yorimichipatisserie/","address":"台中市清水區鎮南街81-2號","latitude":"24.26822450","longitude":"120.57241680","limited_time":"maybe","socket":"maybe","standing_desk":"no","mrt":"","open_time":""},{"id":"8eeded2a-69e5-4785-8fe9-f5a878dec8e9","name":"Come.in.進來。坐 Hair salon & caf’e","city":"taichung","wifi":0,"seat":0,"quiet":0,"tasty":0,"cheap":0,"music":0,"url":"","address":"台中市豐原區直興街88號1樓","latitude":"24.25263200","longitude":"120.72731200","limited_time":"","socket":"","standing_desk":"","mrt":"","open_time":""},{"id":"8ff1d2b7-548b-40fb-bf77-2adfd0cab54a","name":"黝脈咖啡","city":"taichung","wifi":5,"seat":5,"quiet":5,"tasty":5,"cheap":5,"music":4.5,"url":"https://m.facebook.com/黝脈咖啡-162520000821845/?locale2=zh_TW","address":"台中市中區成功路253號","latitude":"24.14349010","longitude":"120.67961950","limited_time":"no","socket":"yes","standing_desk":"yes","mrt":"","open_time":""},{"id":"91024fbc-7bfd-4953-a504-caa0f0ba97ea","name":"Cameza","city":"taichung","wifi":0,"seat":0,"quiet":0,"tasty":0,"cheap":0,"music":0,"url":"","address":"台中市西區五權西五街20巷7號","latitude":"24.13881360","longitude":"120.65957170","limited_time":"","socket":"","standing_desk":"","mrt":"","open_time":""},{"id":"917499aa-73eb-4c16-80e3-1accb8d11b22","name":"Cafe Buddha 佈達咖啡","city":"taichung","wifi":3.5,"seat":4,"quiet":3,"tasty":4,"cheap":4,"music":4,"url":"https://www.facebook.com/cafebuddha/","address":"台中市西屯區文華路永新巷7號","latitude":"24.17671960","longitude":"120.64546980","limited_time":"no","socket":"maybe","standing_desk":"no","mrt":"","open_time":"12:00–02:00"},{"id":"91802aa9-fcfc-4442-9760-1d87af237932","name":"啡文學-大英店","city":"taichung","wifi":4,"seat":3.5,"quiet":4,"tasty":4.5,"cheap":3.5,"music":3.5,"url":"","address":"台中市西區大墩14街265號","latitude":"24.15225940","longitude":"120.64878950","limited_time":"no","socket":"yes","standing_desk":"","mrt":"","open_time":"07:30-22:30"},{"id":"91a2a83f-14d4-437b-ad81-824b0d0bd6a6","name":"莫爾烘焙","city":"taichung","wifi":5,"seat":4,"quiet":5,"tasty":5,"cheap":4,"music":5,"url":" 茉爾烘焙 MoreBakery @MoreBakery20170702","address":"台中市北區漢口路4段76號","latitude":"24.16690730","longitude":"120.67599270","limited_time":"no","socket":"maybe","standing_desk":"no","mrt":"","open_time":""},{"id":"92c267f0-f136-4cd6-97ea-cd31a9bea80c","name":"G.T. 解憂咖啡館","city":"taichung","wifi":0,"seat":0,"quiet":0,"tasty":0,"cheap":0,"music":0,"url":"","address":"436台中市清水區民有路120巷122號","latitude":"24.27915160","longitude":"120.57033670","limited_time":"","socket":"","standing_desk":"","mrt":"","open_time":""},{"id":"92e44723-943a-431a-8e2b-3a6eddd1fe98","name":"11号倉庫","city":"taichung","wifi":5,"seat":5,"quiet":5,"tasty":5,"cheap":5,"music":5,"url":"https://www.facebook.com/11warehousecafe/","address":" 台中市北區進化北路375號","latitude":"24.16306890","longitude":"120.67804640","limited_time":"no","socket":"maybe","standing_desk":"yes","mrt":"","open_time":"11:00am - 20:00pm"},{"id":"930a14a2-7173-4174-8df9-740502a96676","name":"虎姑婆烘焙坊","city":"taichung","wifi":5,"seat":5,"quiet":5,"tasty":4,"cheap":4,"music":4,"url":"https://www.facebook.com/虎姑婆烘培坊-Lady-Tiger每周日周一店休-106465272881585/","address":"台中市南區國光路387-6號","latitude":"24.11990360","longitude":"120.68054170","limited_time":"no","socket":"maybe","standing_desk":"no","mrt":"","open_time":"11:00~21:00                  星期日、一公休"},{"id":"932ffe1f-2e36-4b4e-874d-06c41447c6c2","name":"Coffee The Hammer","city":"taichung","wifi":0,"seat":0,"quiet":0,"tasty":0,"cheap":0,"music":0,"url":"https://m.facebook.com/CoffeeTheHammer/","address":"台中市中區台灣大道一段259號","latitude":"24.14116560","longitude":"120.68082250","limited_time":"no","socket":"maybe","standing_desk":"yes","mrt":"","open_time":""},{"id":"93a4ead8-e95a-4876-b0c2-48e6bee62d77","name":"136 Café Terry","city":"taichung","wifi":4,"seat":3,"quiet":4,"tasty":5,"cheap":3,"music":4,"url":"","address":"台中市南屯區大英街422號","latitude":"24.15153480","longitude":"120.64873090","limited_time":"","socket":"","standing_desk":"","mrt":"","open_time":""},{"id":"93bb9393-f0ef-4722-86d5-76a6d0a0658f","name":"Cafe Hello","city":"taichung","wifi":5,"seat":4,"quiet":5,"tasty":5,"cheap":5,"music":4,"url":"https://www.facebook.com/CafeHelloBrunch/","address":"台中市南屯區大英街9號","latitude":"24.14134400","longitude":"120.64876400","limited_time":"","socket":"maybe","standing_desk":"yes","mrt":"","open_time":""},{"id":"9575da0a-378c-4a66-950b-52dbc5e1e04c","name":"瑪登布魯 Bluesomeone's Vegan Cafe'","city":"taichung","wifi":5,"seat":5,"quiet":5,"tasty":5,"cheap":3,"music":5,"url":"http://www.bluesomeonestudio.com","address":"台中市民權路53巷3-1號","latitude":"24.13640890","longitude":"120.68095380","limited_time":"maybe","socket":"no","standing_desk":"no","mrt":"","open_time":"11:30 - 21:00"},{"id":"99d38377-8e05-4d3c-9860-b7705ccfe115","name":"MITAKA 3e cafe","city":"taichung","wifi":3,"seat":3,"quiet":1,"tasty":2,"cheap":2,"music":3,"url":"https://www.facebook.com/MITAKA.3e.CAFE/","address":"台中市沙鹿區東晉東路731號","latitude":"24.21926700","longitude":"120.58991700","limited_time":"","socket":"no","standing_desk":"yes","mrt":"","open_time":""},{"id":"99f1d2a4-5f44-44c2-8e6b-8c371414eddd","name":"沙鹿•Kp cafe 咖啡專門店","city":"taichung","wifi":5,"seat":5,"quiet":4,"tasty":5,"cheap":4,"music":4,"url":"https://www.facebook.com/Kpmagicbarista/","address":"台中市沙鹿區北勢東路478-1號","latitude":"24.22340810","longitude":"120.57744440","limited_time":"no","socket":"maybe","standing_desk":"no","mrt":"","open_time":"下午1～晚上9點"},{"id":"9a188ebf-cabc-4fd8-8666-690351a9e9eb","name":"默契咖啡","city":"taichung","wifi":5,"seat":4,"quiet":4.5,"tasty":5,"cheap":4,"music":4,"url":"https://www.facebook.com/matchcafe/","address":"台中市西屯區台灣大道二段902號","latitude":"24.16162500","longitude":"120.65204300","limited_time":"no","socket":"yes","standing_desk":"no","mrt":"","open_time":"10:00-22:00"},{"id":"9a70b6a0-8453-46e4-976d-2195fb3f095b","name":"Fleet Street","city":"taichung","wifi":5,"seat":4,"quiet":5,"tasty":5,"cheap":3,"music":5,"url":"https://www.facebook.com/fleetstreet24","address":"台中市中區民族路24號","latitude":"24.13769600","longitude":"120.68192500","limited_time":"no","socket":"maybe","standing_desk":"no","mrt":"","open_time":""},{"id":"9ad4acaa-474f-40bd-a362-94b6179ed9db","name":"Rice Caff'e 米咖啡","city":"taichung","wifi":5,"seat":5,"quiet":5,"tasty":5,"cheap":5,"music":5,"url":"https://www.facebook.com/ricecaffe/","address":"台中市西屯區精明二街11號","latitude":"24.15734200","longitude":"120.65581400","limited_time":"maybe","socket":"maybe","standing_desk":"yes","mrt":"","open_time":"若有外出舉辦活動或上課,粉絲專頁會發佈臨時公休"},{"id":"9b303394-6efa-4679-8bb1-8fe08211baac","name":"Smohouse 思默好時","city":"taichung","wifi":5,"seat":5,"quiet":5,"tasty":3,"cheap":4.5,"music":4.5,"url":"http://www.smohouse.com/","address":"台中市南屯區大墩六街208號","latitude":"24.14271910","longitude":"120.64941710","limited_time":"","socket":"","standing_desk":"no","mrt":"","open_time":"10:00 - 18:00"},{"id":"9ca332ed-7609-4fd2-9dee-f934191d971c","name":"卡啡那 CAFFAINA 惠來店","city":"taichung","wifi":3,"seat":3,"quiet":2,"tasty":4,"cheap":2,"music":4,"url":"http://www.caffaina.com/","address":"台中市西屯區惠中路二段45號","latitude":"24.15569270","longitude":"120.64120790","limited_time":"no","socket":"yes","standing_desk":"yes","mrt":"","open_time":"09:00 - 24:00"},{"id":"9efb96ac-cbfc-4c3c-a56f-c895c7e6fc56","name":"13菓子田-13咖啡吧","city":"taichung","wifi":0,"seat":0,"quiet":0,"tasty":0,"cheap":0,"music":0,"url":"","address":"436台中市清水區新興路278號","latitude":"24.27123640","longitude":"120.57787690","limited_time":"","socket":"","standing_desk":"","mrt":"","open_time":""},{"id":"a1eeac78-b671-43ad-b746-6c6fddbba0fc","name":"Forro Cafe","city":"taichung","wifi":5,"seat":4,"quiet":4,"tasty":5,"cheap":4,"music":4.5,"url":"http://www.forro.com.tw/","address":"台中市西區精誠三街47號","latitude":"24.15579960","longitude":"120.65827280","limited_time":"no","socket":"yes","standing_desk":"yes","mrt":"","open_time":"09:00 - 18:00"},{"id":"a2ce3c3a-7766-435d-9c20-e3f6b2005be9","name":"黑貓月亮咖啡館","city":"taichung","wifi":5,"seat":5,"quiet":5,"tasty":5,"cheap":5,"music":4,"url":"http://www.blackcatmoon.com.tw","address":"台中市西屯區黎明路二段860巷28號","latitude":"24.16209200","longitude":"120.63410100","limited_time":"maybe","socket":"yes","standing_desk":"no","mrt":"","open_time":"全預約制"},{"id":"a2dca6f2-30e0-44cd-b1d1-114bf86a9b1f","name":"沐cafe","city":"taichung","wifi":0,"seat":0,"quiet":0,"tasty":0,"cheap":0,"music":0,"url":"","address":"402台中市南區五權南路380巷19號","latitude":"24.12044790","longitude":"120.67127080","limited_time":"","socket":"","standing_desk":"","mrt":"","open_time":""},{"id":"a2ebdbc8-4359-4eef-84ae-adabfe0a632b","name":"覓靜拾光","city":"taichung","wifi":3.5,"seat":5,"quiet":4.5,"tasty":5,"cheap":3.5,"music":5,"url":"https://www.facebook.com/stilllight910/?fref=ts","address":"台中市西區精誠九街十號一樓","latitude":"24.15388010","longitude":"120.65584160","limited_time":"","socket":"maybe","standing_desk":"","mrt":"","open_time":""},{"id":"a3232e7f-a9e3-49c0-b196-77062203e83c","name":"428cafe","city":"taichung","wifi":4,"seat":4,"quiet":5,"tasty":5,"cheap":5,"music":4,"url":"https://www.facebook.com/428Coffee/","address":"台中市西區博館路103號","latitude":"24.15615210","longitude":"120.66553120","limited_time":"maybe","socket":"maybe","standing_desk":"yes","mrt":"","open_time":"08:00-18:00"},{"id":"a4948793-e2d8-4bbf-a2e1-84915b8f3594","name":"窩茶居","city":"taichung","wifi":4,"seat":5,"quiet":5,"tasty":5,"cheap":3,"music":3,"url":"https://wochaju.com","address":"台中市西區華美西街一段30號","latitude":"24.15229000","longitude":"120.65824600","limited_time":"no","socket":"maybe","standing_desk":"no","mrt":"","open_time":"09:30 - 18:00"},{"id":"a5402917-2237-4091-9127-b79405a8483e","name":"OnOnNature","city":"taichung","wifi":0,"seat":5,"quiet":5,"tasty":5,"cheap":3,"music":4,"url":"https://www.facebook.com/ononnature/","address":"台中市石岡區石城街27號","latitude":"24.27792470","longitude":"120.77557660","limited_time":"maybe","socket":"","standing_desk":"","mrt":"","open_time":""},{"id":"a6008a35-1add-46e1-b5e7-4b6a265eb4ba","name":"沒有名字的咖啡館","city":"taichung","wifi":2,"seat":4,"quiet":4,"tasty":5,"cheap":5,"music":5,"url":"","address":"台中市西區公益路174巷212號","latitude":"24.15436300","longitude":"120.65856400","limited_time":"no","socket":"no","standing_desk":"no","mrt":"","open_time":""},{"id":"a6bc9e65-49a3-47b2-bd0b-a0be78bc82fc","name":"後驛冊店","city":"taichung","wifi":5,"seat":5,"quiet":5,"tasty":5,"cheap":4,"music":5,"url":"https://www.facebook.com/statio.verso/","address":"台中市東區大公街19號1F","latitude":"24.13447400","longitude":"120.68539650","limited_time":"no","socket":"yes","standing_desk":"no","mrt":"","open_time":"12:00-21:00（週一公休）"},{"id":"a956a1bd-b92c-48c9-acb6-4439b1986704","name":"福人咖啡","city":"taichung","wifi":0,"seat":0,"quiet":0,"tasty":0,"cheap":0,"music":0,"url":"https://www.facebook.com/fujentea","address":"台中市北區東光路398-1號1樓","latitude":"24.15846200","longitude":"120.69968100","limited_time":"no","socket":"maybe","standing_desk":"no","mrt":"","open_time":"要先預約"},{"id":"a9690c23-064a-4ad3-95dc-795cb5250d91","name":"羊毛馬路咖啡-勤美店","city":"taichung","wifi":5,"seat":5,"quiet":5,"tasty":5,"cheap":5,"music":5,"url":"https://b-m.facebook.com/woolroad2/","address":"台中市西區民權路229巷21號","latitude":"24.14895140","longitude":"120.66772580","limited_time":"maybe","socket":"maybe","standing_desk":"yes","mrt":"","open_time":""},{"id":"ab5ac2b2-1b7a-499f-b651-95366b256889","name":"Café Yestoday","city":"taichung","wifi":0,"seat":5,"quiet":4,"tasty":4,"cheap":4,"music":5,"url":"","address":"台中市龍井區藝術街97號","latitude":"24.18812160","longitude":"120.59211930","limited_time":"no","socket":"no","standing_desk":"yes","mrt":"","open_time":""},{"id":"ac37adbc-5b55-441f-947a-92400dab260b","name":"熊喝咖啡","city":"taichung","wifi":5,"seat":5,"quiet":4,"tasty":5,"cheap":4,"music":5,"url":"https://www.facebook.com/besffee/","address":"台中市北區太原路二段4號","latitude":"24.16480100","longitude":"120.67430200","limited_time":"","socket":"yes","standing_desk":"","mrt":"","open_time":""},{"id":"ac781fdf-0743-446b-b5af-04fbd1e89146","name":"林青霞腳踏車咖啡","city":"taichung","wifi":0,"seat":5,"quiet":5,"tasty":5,"cheap":5,"music":4,"url":"https://m.facebook.com/林青霞腳踏車咖啡-174147725957705/?ref=page_internal&mt_nav=0","address":"台中市西屯區精明二街49號","latitude":"24.15634330","longitude":"120.65513710","limited_time":"maybe","socket":"no","standing_desk":"no","mrt":"","open_time":""},{"id":"acb7e004-e7a5-477c-872c-e6e47e2227f9","name":"拾光机","city":"taichung","wifi":5,"seat":5,"quiet":5,"tasty":5,"cheap":5,"music":5,"url":"http://www.facebook.com/timeless01","address":"台中市西區自治街36號","latitude":"24.13894420","longitude":"120.67107350","limited_time":"","socket":"yes","standing_desk":"no","mrt":"","open_time":"10:00 - 18:00，每星期二公休"},{"id":"ad7370fc-0aae-45ac-8e3d-024b6c0afe64","name":"Cat's House","city":"taichung","wifi":5,"seat":4.5,"quiet":4,"tasty":5,"cheap":4.5,"music":5,"url":"https://www.facebook.com/Cats-House-491100747662919/","address":"台中市南屯區文心南二路170巷10號","latitude":"24.13636000","longitude":"120.64740260","limited_time":"maybe","socket":"no","standing_desk":"no","mrt":"","open_time":"13:00-22:00"},{"id":"ade9440e-6665-441e-a63c-7f9b0c75afe3","name":"肆零陸","city":"taichung","wifi":5,"seat":5,"quiet":5,"tasty":5,"cheap":3,"music":4,"url":"https://www.facebook.com/pages/%E8%82%86%E9%9B%B6%E9%99%B8/1499699327016339","address":"406台中市北屯區東山路一段406號","latitude":"24.17716340","longitude":"120.73495340","limited_time":"no","socket":"maybe","standing_desk":"yes","mrt":"","open_time":"二～日 9-18"},{"id":"b16b3a80-0752-46dc-8d2a-517e98c9f614","name":"ROKARO coffee","city":"taichung","wifi":5,"seat":5,"quiet":5,"tasty":4,"cheap":5,"music":4,"url":"https://www.facebook.com/rokaro.coffee/","address":"台中市美村路一段576巷21號","latitude":"24.13841990","longitude":"120.66033630","limited_time":"no","socket":"maybe","standing_desk":"yes","mrt":"","open_time":""},{"id":"b23c8715-6d23-47d7-b7bc-468585709ee9","name":"REN CAFE","city":"taichung","wifi":1,"seat":4,"quiet":3,"tasty":3,"cheap":2.5,"music":2,"url":"https://www.facebook.com/rencafe1086ruelle/","address":"台中市南屯區黎明路一段1086巷41號","latitude":"24.13988590","longitude":"120.63932940","limited_time":"maybe","socket":"maybe","standing_desk":"no","mrt":"","open_time":"店休粉絲專頁進行公告"},{"id":"b3ae03ff-b6e5-4271-9f10-55dacb0f509e","name":"MT49芒果樹49號咖啡店","city":"taichung","wifi":5,"seat":4,"quiet":3.5,"tasty":5,"cheap":3.5,"music":4.5,"url":"https://www.facebook.com/MT49cafe","address":"台中市北屯區后庄七街49號","latitude":"24.18980340","longitude":"120.66636860","limited_time":"no","socket":"yes","standing_desk":"yes","mrt":"","open_time":"10:30 - 21:00"},{"id":"b4e5925a-88a7-4699-8a24-450f1d03abc9","name":"沃咖啡","city":"taichung","wifi":5,"seat":5,"quiet":4,"tasty":5,"cheap":5,"music":5,"url":"www.facebook.com/worldrich.coffee/","address":"台中市西屯區西屯路二段10-8號","latitude":"24.16384350","longitude":"120.66224350","limited_time":"no","socket":"maybe","standing_desk":"yes","mrt":"","open_time":""},{"id":"b59b59e5-d1ae-4db1-9b25-bfe8bfba4d18","name":"Café sora (Coffee Industry) ","city":"taichung","wifi":4,"seat":4,"quiet":5,"tasty":4,"cheap":4,"music":4,"url":"https://www.facebook.com/Industry.Sora/","address":"台中市西區民生路179號","latitude":"24.14352800","longitude":"120.67005970","limited_time":"maybe","socket":"yes","standing_desk":"no","mrt":"","open_time":"週四須留意店家公告"},{"id":"b5d40ec2-489a-4cbb-8c35-a45b1a1c32c6","name":"天味咖啡道 tenway cafe","city":"taichung","wifi":5,"seat":5,"quiet":5,"tasty":5,"cheap":5,"music":5,"url":"https://www.facebook.com/tenwaycafe","address":"台中市西區健行路1020號","latitude":"24.15709480","longitude":"120.66329180","limited_time":"no","socket":"yes","standing_desk":"no","mrt":"","open_time":"Thu-Fri 13:00-18:00 Sat-Sun 14:00-21:00"},{"id":"b704247f-4209-4647-abdb-2eb8e47bb421","name":"方舟咖啡廚房","city":"taichung","wifi":0,"seat":0,"quiet":0,"tasty":0,"cheap":0,"music":0,"url":"https://www.facebook.com/tadacafe","address":"台中市南區復興路三段362號","latitude":"24.13334340","longitude":"120.68074400","limited_time":"","socket":"","standing_desk":"","mrt":"","open_time":"每週一公休 週二至週日營業時間* AM: 10:00~ PM: 19:00*(PS:每日最後出餐時間為*PM:18:00*)"},{"id":"b830afa7-4142-4e24-9b9b-6297adf16af8","name":"艾薇兒咖啡店","city":"taichung","wifi":5,"seat":4,"quiet":5,"tasty":5,"cheap":5,"music":3,"url":"","address":"台中市西區大忠南街89號","latitude":"24.13822450","longitude":"120.65530440","limited_time":"","socket":"","standing_desk":"","mrt":"","open_time":""},{"id":"ba24a311-5a13-4d6f-9288-0be7bc3e1eed","name":"奇椏咖啡","city":"taichung","wifi":5,"seat":5,"quiet":4,"tasty":5,"cheap":5,"music":5,"url":"https://www.facebook.com/chillight.coffee/","address":"台中市沙鹿區大同街121號","latitude":"24.23962750","longitude":"120.55920600","limited_time":"no","socket":"yes","standing_desk":"yes","mrt":"","open_time":""},{"id":"bb4ac167-cbe8-4bf3-b659-e03ee9c5ec9b","name":"思維 輕 甜食","city":"taichung","wifi":5,"seat":4,"quiet":4,"tasty":5,"cheap":5,"music":5,"url":"https://www.facebook.com/berylsweetcafe/","address":"龍井區新興路27巷8號2樓","latitude":"24.18029600","longitude":"120.58973200","limited_time":"no","socket":"yes","standing_desk":"no","mrt":"","open_time":"14:00~22:00"},{"id":"bd3abcc2-5145-4625-b47b-1df3db1a0a40","name":"Café Mambo 漫波","city":"taichung","wifi":4.5,"seat":5,"quiet":4.5,"tasty":4.5,"cheap":4.5,"music":5,"url":"https://www.facebook.com/cafemambo.tw/","address":"台中市北區五權路594號","latitude":"24.15411240","longitude":"120.68521750","limited_time":"no","socket":"yes","standing_desk":"yes","mrt":"","open_time":"15:00~01:00"},{"id":"bdb106a5-5aa7-4f4b-9de8-a6f65b2dd840","name":"PLANT cafe","city":"taichung","wifi":0,"seat":4,"quiet":2.5,"tasty":3.5,"cheap":4.5,"music":3,"url":"https://m.facebook.com/coffeeT7/","address":"台中市沙鹿區日新街61巷1號","latitude":"24.23629360","longitude":"120.56449320","limited_time":"no","socket":"maybe","standing_desk":"yes","mrt":"","open_time":""},{"id":"be4738f7-939d-4825-b27e-3e481bbc8211","name":"新銳咖啡-民族店","city":"taichung","wifi":2,"seat":4,"quiet":4,"tasty":3,"cheap":3,"music":3,"url":"https://m.facebook.com/sensorycafeminzu/?tsid=0.25818453974662403","address":"台中市五權路58號","latitude":"24.14613320","longitude":"120.67226190","limited_time":"no","socket":"no","standing_desk":"no","mrt":"","open_time":""},{"id":"be6ba8a8-ab01-4a93-8d74-c7e269cfcb6d","name":"光明客棧 idea Lab. CAFÉ 十樓咖啡館","city":"taichung","wifi":5,"seat":5,"quiet":5,"tasty":4,"cheap":4,"music":5,"url":"http://idealab.com.tw","address":"台中市西屯區台灣大道三段540號10樓之5","latitude":"24.16862130","longitude":"120.64055100","limited_time":"","socket":"yes","standing_desk":"","mrt":"","open_time":"9:00～18:00"},{"id":"beeac6cb-3e92-4177-826d-d377abf3bdb9","name":"Cafeing可因咖啡","city":"taichung","wifi":5,"seat":4.5,"quiet":5,"tasty":5,"cheap":5,"music":5,"url":"https://m.facebook.com/CafeingRoaster","address":"台中市南屯區大墩11街447號","latitude":"24.14862060","longitude":"120.64010710","limited_time":"yes","socket":"maybe","standing_desk":"no","mrt":"","open_time":""},{"id":"bf01c38d-0fa7-4cbc-a2b4-5f9a443f0e8e","name":"森林小徑-鍋物。早午餐。義式料理。下午茶","city":"taichung","wifi":5,"seat":3.5,"quiet":3.5,"tasty":4,"cheap":4,"music":3.5,"url":"https://www.facebook.com/fp22982238/?ref=bookmarks","address":"台中市北屯區文心路四段131號","latitude":"24.17414400","longitude":"120.67494800","limited_time":"maybe","socket":"maybe","standing_desk":"no","mrt":"","open_time":""},{"id":"bfa6a95c-5de6-4aa7-a25f-aa5b4d4c3c68","name":"出軌咖","city":"taichung","wifi":5,"seat":4.5,"quiet":5,"tasty":5,"cheap":5,"music":5,"url":"https://www.facebook.com/derailcoffee/","address":"台中市沙鹿區光華路372巷41號","latitude":"24.24236380","longitude":"120.56630100","limited_time":"no","socket":"","standing_desk":"no","mrt":"","open_time":""},{"id":"c04a44e4-4406-4268-aa80-f56a33d6b852","name":"順咖啡","city":"taichung","wifi":5,"seat":5,"quiet":5,"tasty":5,"cheap":4,"music":4,"url":"https://www.facebook.com/sooncoffee/","address":"台中市中區市府路107巷1-2號","latitude":"24.14137400","longitude":"120.68157600","limited_time":"no","socket":"yes","standing_desk":"no","mrt":"","open_time":"12:00-19:00 (週二休)"},{"id":"c1ebf0c0-d572-4f3e-95a7-9aecdab7a3f1","name":"棋朵keydoor咖啡","city":"taichung","wifi":4,"seat":4,"quiet":4,"tasty":4,"cheap":3,"music":4,"url":"https://www.facebook.com/keydoor108/","address":"台中市南區南和路108號","latitude":"24.11785000","longitude":"120.66869300","limited_time":"","socket":"maybe","standing_desk":"","mrt":"","open_time":""},{"id":"c2407de6-dc95-4bf5-8cb2-0fac1a7bc6cd","name":"Kozy Cafe","city":"taichung","wifi":4,"seat":4,"quiet":4,"tasty":5,"cheap":3,"music":4,"url":"https://www.facebook.com/kozycafe/","address":"台中市南屯區大墩十街230號","latitude":"24.14786140","longitude":"120.64845900","limited_time":"no","socket":"maybe","standing_desk":"no","mrt":"","open_time":""},{"id":"c260f141-e610-49f2-9687-1e245288d227","name":"HAUSINC CAFE","city":"taichung","wifi":5,"seat":4,"quiet":4,"tasty":5,"cheap":4,"music":5,"url":"https://www.facebook.com/HAUSINC-CAFE-1441818039400868/","address":"台中市北區忠太西路 39 號","latitude":"24.16188770","longitude":"120.66775040","limited_time":"no","socket":"maybe","standing_desk":"yes","mrt":"","open_time":"週二到週六09:00-18:00、週日11:00-18:00、週一公休"},{"id":"c42b0d0f-ad3c-404a-8f0c-b61c9f794f72","name":"Cheers Cafe騎士咖啡","city":"taichung","wifi":5,"seat":4,"quiet":4,"tasty":5,"cheap":5,"music":5,"url":"https://www.facebook.com/CheersCafeTaiwan/","address":"台中市南屯區環中路四段303-1號","latitude":"24.13931780","longitude":"120.62312180","limited_time":"no","socket":"maybe","standing_desk":"yes","mrt":"","open_time":""},{"id":"c54b439b-7dda-4449-a487-5448d2f24355","name":"Emma's Cafe","city":"taichung","wifi":5,"seat":4.5,"quiet":3.5,"tasty":4.5,"cheap":4,"music":5,"url":"https://www.facebook.com/EMMASCAFE196/","address":"台中市北區學士路196巷9號","latitude":"24.16005200","longitude":"120.68154500","limited_time":"","socket":"","standing_desk":"","mrt":"","open_time":"每日 09:00-23:00"},{"id":"c558a13f-b63d-40e6-9e70-b3660b4bc09d","name":"Caffina 卡啡那大墩店","city":"taichung","wifi":4,"seat":3.5,"quiet":1.5,"tasty":3.5,"cheap":3,"music":3,"url":"http://www.caffaina.com/","address":"台中南屯區大墩路573號","latitude":"24.15017310","longitude":"120.64968160","limited_time":"no","socket":"maybe","standing_desk":"yes","mrt":"","open_time":"早上9點到凌晨12點"},{"id":"c7533853-ef74-48cd-8f9f-917384293377","name":"Retro Mojo Coffee","city":"taichung","wifi":5,"seat":4,"quiet":4,"tasty":5,"cheap":4,"music":5,"url":"https://www.facebook.com/RetroMojocoffee/","address":"台中市西區五權西路一段116號","latitude":"24.14025480","longitude":"120.66095790","limited_time":"maybe","socket":"maybe","standing_desk":"yes","mrt":"","open_time":"08:30-20:00                           週六: 09:00-20:00"},{"id":"c7f7f51e-c9c6-4302-9a86-8d765f7cab62","name":"揚眉土器 ","city":"taichung","wifi":0,"seat":0,"quiet":0,"tasty":0,"cheap":0,"music":0,"url":"","address":"436台中市清水區大街路106號","latitude":"24.26818300","longitude":"120.57854900","limited_time":"","socket":"","standing_desk":"","mrt":"","open_time":""},{"id":"c83da8e8-2d69-4a6a-b5c3-60a7fb8a6182","name":"Frinicafe","city":"taichung","wifi":4.5,"seat":4,"quiet":5,"tasty":5,"cheap":5,"music":5,"url":"https://www.facebook.com/Frini-Caf%C3%A9-1761532737499970/?ref=bookmarks","address":"台中市西屯區台灣大道四段776號","latitude":"24.18080300","longitude":"120.62067800","limited_time":"no","socket":"yes","standing_desk":"yes","mrt":"","open_time":"星期三公休"},{"id":"c8e9a7c1-d62a-4b0e-b1bc-2383870cc311","name":"Cuiqu Coffee奎克咖啡台中公益店","city":"taichung","wifi":0,"seat":5,"quiet":3,"tasty":5,"cheap":4,"music":5,"url":"http://www.cuiqu-coffee.com/","address":"台中市南屯區公益路二段532號","latitude":"24.15130420","longitude":"120.63456350","limited_time":"","socket":"maybe","standing_desk":"","mrt":"","open_time":""},{"id":"cb52e032-7d2f-4e04-9c59-3b8b5cfbc8e3","name":"矢羽珈琲 Arrow Cafe","city":"taichung","wifi":5,"seat":5,"quiet":4,"tasty":5,"cheap":4,"music":5,"url":"https://www.arrowcafe.net/","address":"台中市西區精誠二十三街27號","latitude":"24.14623380","longitude":"120.65601180","limited_time":"no","socket":"maybe","standing_desk":"yes","mrt":"","open_time":"17:30最後點單時間"},{"id":"cc37f180-faed-4edb-82a6-674d178f4e4a","name":"布嘉糖精品咖啡工作室","city":"taichung","wifi":4,"seat":5,"quiet":5,"tasty":5,"cheap":5,"music":5,"url":"www.bujustory.com","address":"台中市西區文化街154號","latitude":"24.15238410","longitude":"120.67189030","limited_time":"maybe","socket":"maybe","standing_desk":"yes","mrt":"","open_time":""},{"id":"cc47300f-5224-49cc-88ed-d3d12bd07ff2","name":"BlackPages Cafe 台中中友店","city":"taichung","wifi":3.5,"seat":4,"quiet":4.5,"tasty":5,"cheap":3,"music":5,"url":"","address":"台中市北區三民路三段161號C棟11F","latitude":"24.15207290","longitude":"120.68475400","limited_time":"","socket":"","standing_desk":"no","mrt":"","open_time":"11:00 - 22:00"},{"id":"cd0d597a-1589-4045-8569-382dc73ebb5e","name":"Wednesday's Flavor","city":"taichung","wifi":5,"seat":5,"quiet":5,"tasty":5,"cheap":4,"music":5,"url":"","address":"台中市西區美村路一段 149 巷 11 號","latitude":"24.15160950","longitude":"120.66224870","limited_time":"","socket":"yes","standing_desk":"no","mrt":"","open_time":"11:00–20:30"},{"id":"cd75175c-9f01-488e-9038-c4e89b00f76a","name":"Mono Villa / 獨墅 造啡基","city":"taichung","wifi":0,"seat":0,"quiet":0,"tasty":0,"cheap":0,"music":0,"url":"https://www.facebook.com/MonoVilla.Taiwan/?fref=ts","address":"402台中市南區興大路72號","latitude":"24.12433900","longitude":"120.68163600","limited_time":"","socket":"","standing_desk":"","mrt":"","open_time":"15:00-23:00"},{"id":"cf7d4ebb-b23e-4932-a38e-5e7788f0cff2","name":"The Factory- Mojocoffee","city":"taichung","wifi":5,"seat":5,"quiet":4.5,"tasty":5,"cheap":4,"music":5,"url":"https://www.facebook.com/The-Factory-Mojocoffee-272695802751148/","address":"台中市西區精誠六街22號","latitude":"24.15492010","longitude":"120.65709390","limited_time":"maybe","socket":"maybe","standing_desk":"yes","mrt":"","open_time":""},{"id":"cf9b6157-74ba-42ea-a6ad-49a0cad66aff","name":"Simone Cafe","city":"taichung","wifi":5,"seat":5,"quiet":5,"tasty":5,"cheap":5,"music":5,"url":"https://www.facebook.com/simonecafe/?fref=ts","address":"台中市台中市甘肅路一段81-1號","latitude":"24.16636890","longitude":"120.65844000","limited_time":"no","socket":"maybe","standing_desk":"no","mrt":"","open_time":"不定時"},{"id":"d20c01ce-e1a8-4182-9bec-471e3d32e0df","name":"AShare Cafe 旅人故事咖啡館","city":"taichung","wifi":5,"seat":4,"quiet":4,"tasty":5,"cheap":5,"music":5,"url":"https://linktr.ee/ashare.cafe","address":"台中市西區民生北路20號","latitude":"24.14514490","longitude":"120.66879600","limited_time":"maybe","socket":"maybe","standing_desk":"no","mrt":"","open_time":""},{"id":"d2cfeadd-a04c-4461-ae13-e18a694521ac","name":"ExpertCAFE","city":"taichung","wifi":0,"seat":5,"quiet":4,"tasty":5,"cheap":3,"music":5,"url":"https://www.facebook.com/Expertcafe.fans/","address":"台中市西屯區上石路116號","latitude":"24.16927840","longitude":"120.64485050","limited_time":"no","socket":"yes","standing_desk":"no","mrt":"","open_time":""},{"id":"d33f2b9c-b1f1-4eed-b2c1-446f2a607bbc","name":"樂在其中","city":"taichung","wifi":5,"seat":5,"quiet":5,"tasty":5,"cheap":5,"music":5,"url":"https://www.facebook.com/lecafe88/","address":"41150台中市太平區頭汴里北田路30巷65號","latitude":"24.12274600","longitude":"120.75482000","limited_time":"","socket":"maybe","standing_desk":"no","mrt":"","open_time":"週一店休 13：00～21：00 需預約 不開放小孩與寵物"},{"id":"d3512add-1ec5-4ce9-91f6-9c69e85df895","name":"琪玉咖啡","city":"taichung","wifi":5,"seat":5,"quiet":5,"tasty":5,"cheap":5,"music":5,"url":"https://www.facebook.com/chiyucoffee/","address":"台中市豐原區中興路232號1樓","latitude":"24.24670710","longitude":"120.71161880","limited_time":"maybe","socket":"maybe","standing_desk":"yes","mrt":"","open_time":"禁帶寵物(導盲犬除外)"},{"id":"d35e48c8-228d-4667-945c-eaf8cd3fbc44","name":"更迭咖啡","city":"taichung","wifi":5,"seat":5,"quiet":5,"tasty":5,"cheap":5,"music":5,"url":"https://www.facebook.com/cafealternation/","address":"太平區新平路一段138巷1號","latitude":"24.13289300","longitude":"120.71690700","limited_time":"no","socket":"maybe","standing_desk":"yes","mrt":"","open_time":""},{"id":"d5788671-58e4-4f41-a4ab-ecc1671b0cc3","name":"箖GA B","city":"taichung","wifi":5,"seat":5,"quiet":4,"tasty":5,"cheap":4.5,"music":4.5,"url":"","address":"台中市北屯區大連路二段241號","latitude":"24.17575550","longitude":"120.68893880","limited_time":"","socket":"","standing_desk":"","mrt":"","open_time":""},{"id":"d5de7423-e31f-47b3-a74e-823e82dd243f","name":"FIKA Kaffe","city":"taichung","wifi":5,"seat":3,"quiet":3,"tasty":5,"cheap":4,"music":5,"url":"https://www.facebook.com/fika.kaffe","address":"台中市北區進化北路361號","latitude":"24.16298440","longitude":"120.67988210","limited_time":"no","socket":"maybe","standing_desk":"yes","mrt":"","open_time":"週一公休"},{"id":"d61a9ec1-5517-49ac-aaa8-1c2f639c5e16","name":"35巷咖啡","city":"taichung","wifi":0,"seat":0,"quiet":0,"tasty":0,"cheap":0,"music":0,"url":"","address":"台中市南區興大路35巷8號8 號","latitude":"24.12434200","longitude":"120.68459700","limited_time":"","socket":"maybe","standing_desk":"","mrt":"","open_time":"1300-1800"},{"id":"d633bc89-1dd5-4cd8-9dae-dd9841a0e7c9","name":"新銳咖啡五權美術店","city":"taichung","wifi":5,"seat":5,"quiet":4,"tasty":5,"cheap":4,"music":4,"url":"https://www.facebook.com/pages/%E6%96%B0%E9%8A%B3%E5%92%96%E5%95%A1%E4%BA%94%E6%AC%8A%E7%BE%8E%E8%A1%93%E5%BA%97/392234117903222","address":"403台中市西區五權路2-171","latitude":"24.13563990","longitude":"120.66596200","limited_time":"no","socket":"maybe","standing_desk":"no","mrt":"","open_time":""},{"id":"d879daf0-fe61-469d-9150-5ae356e1cf44","name":"A1 COFFEE","city":"taichung","wifi":0,"seat":0,"quiet":5,"tasty":5,"cheap":4,"music":4,"url":"","address":"台中市西屯區福康路119巷31號","latitude":"24.18624330","longitude":"120.61724760","limited_time":"","socket":"no","standing_desk":"","mrt":"","open_time":""},{"id":"d99360c2-d9e4-4bfd-853a-ad3165a8e8e1","name":"Bear's marsh","city":"taichung","wifi":5,"seat":5,"quiet":5,"tasty":5,"cheap":5,"music":5,"url":"http://www.bearsmarsh.com","address":"台中市西區美村路一段771巷6號","latitude":"24.13295390","longitude":"120.66221100","limited_time":"no","socket":"maybe","standing_desk":"","mrt":"","open_time":"週二～日：11:00 - 18:00 週一公休"},{"id":"da28b1a7-8d2d-4557-870e-7096914ea45b","name":"賴在咖啡","city":"taichung","wifi":5,"seat":4,"quiet":5,"tasty":4.5,"cheap":3.5,"music":4,"url":"https://www.facebook.com/aTraintoCafe/?fref=ts","address":"台中市大里區文化街106巷1號","latitude":"24.09072660","longitude":"120.69977910","limited_time":"no","socket":"maybe","standing_desk":"no","mrt":"","open_time":"11:00 - 21:00"},{"id":"da58e8aa-6b2a-4c46-9943-2a5a55014822","name":"咖啡任務 Cafe Task","city":"taichung","wifi":4,"seat":3,"quiet":3,"tasty":5,"cheap":4,"music":5,"url":"https://www.facebook.com/CafeTask/","address":"402南區忠明南路789號36樓","latitude":"24.12330230","longitude":"120.66097930","limited_time":"","socket":"","standing_desk":"yes","mrt":"","open_time":""},{"id":"de51c0b4-7e10-4a08-b675-35636b1edd7f","name":"香織咖啡-南屯店","city":"taichung","wifi":5,"seat":5,"quiet":5,"tasty":5,"cheap":5,"music":5,"url":"https://www.facebook.com/kaori.coffee.shop/","address":"台中市南屯區南屯路二段381號","latitude":"24.13797270","longitude":"120.64420120","limited_time":"maybe","socket":"maybe","standing_desk":"no","mrt":"","open_time":"7：00-17：00"},{"id":"ded0144c-4ec0-4ec2-b743-36aaaef4a86d","name":"發光的石頭","city":"taichung","wifi":5,"seat":5,"quiet":5,"tasty":5,"cheap":5,"music":5,"url":"https://www.facebook.com/stonedinparadise.cafe/","address":"台中市西區五權路2-46號","latitude":"24.14114370","longitude":"120.66736540","limited_time":"maybe","socket":"maybe","standing_desk":"no","mrt":"","open_time":"暫時未定休"},{"id":"df18073f-3ccb-42ef-8d6d-d671b939b189","name":"Rose cafe 羅氏咖啡","city":"taichung","wifi":0,"seat":0,"quiet":0,"tasty":0,"cheap":0,"music":0,"url":"","address":"436台中市清水區北寧街4號","latitude":"24.27164400","longitude":"120.57884200","limited_time":"","socket":"","standing_desk":"","mrt":"","open_time":""},{"id":"df6a7e4b-9682-463b-b404-3331b224d181","name":"好馡工作室","city":"taichung","wifi":5,"seat":5,"quiet":5,"tasty":5,"cheap":3,"music":2,"url":"https://www.facebook.com/TheWusHandroastedCoffee","address":"台中市西屯區大容西街35號","latitude":"24.15634530","longitude":"120.64735830","limited_time":"no","socket":"no","standing_desk":"yes","mrt":"","open_time":"周二公休遇連假順延至周三店休"},{"id":"e0009803-9a8b-472c-b825-478aafd46a76","name":"Le Mods","city":"taichung","wifi":0,"seat":0,"quiet":0,"tasty":0,"cheap":0,"music":0,"url":"https://www.facebook.com/lemodscafe/","address":"台中市北區太原路二段201號","latitude":"24.16551800","longitude":"120.68123100","limited_time":"","socket":"","standing_desk":"","mrt":"","open_time":""},{"id":"e10ef2e8-9a4e-4728-989e-940d44628ad4","name":"J Coffee 傑品咖啡","city":"taichung","wifi":0,"seat":0,"quiet":0,"tasty":0,"cheap":0,"music":0,"url":"https://www.facebook.com/jcoffee123/","address":"台中市中區雙十路一段35-14號","latitude":"24.14224400","longitude":"120.68552500","limited_time":"maybe","socket":"yes","standing_desk":"no","mrt":"","open_time":""},{"id":"e33cab60-4c64-4913-9eeb-488351cb7fd2","name":"幸福旅行","city":"taichung","wifi":0,"seat":0,"quiet":0,"tasty":0,"cheap":0,"music":0,"url":"","address":"向陽路6巷7號","latitude":"24.25151400","longitude":"120.72118300","limited_time":"","socket":"","standing_desk":"","mrt":"","open_time":""},{"id":"e430a9fb-6079-4afe-ac8b-639b2c79fbea","name":"羊毛馬路咖啡","city":"taichung","wifi":4.5,"seat":4.5,"quiet":4.5,"tasty":5,"cheap":4,"music":5,"url":"https://www.facebook.com/woolroad/","address":"台中市北區原子街154號","latitude":"24.14893700","longitude":"120.67697040","limited_time":"no","socket":"yes","standing_desk":"yes","mrt":"","open_time":""},{"id":"e51c2a3c-5404-4375-8c2f-3f090a61f49a","name":"內巷X胡同咖啡","city":"taichung","wifi":5,"seat":5,"quiet":5,"tasty":5,"cheap":4,"music":5,"url":"https://www.facebook.com/7143coffee","address":"403台中市西區精誠九街16巷3號","latitude":"24.15332300","longitude":"120.65677790","limited_time":"no","socket":"maybe","standing_desk":"","mrt":"","open_time":"13：00-22：00"},{"id":"e538068c-c6db-4967-aa48-e2a6b36126c0","name":"Coffee & People","city":"taichung","wifi":3.5,"seat":3,"quiet":3,"tasty":5,"cheap":3.5,"music":4,"url":"https://www.facebook.com/coffee.people.coffee/","address":"台中市西區向上路一段79巷66弄21號","latitude":"24.14500140","longitude":"120.66356440","limited_time":"no","socket":"yes","standing_desk":"no","mrt":"","open_time":"平日12:00-19:00 假日10:00-19:00"},{"id":"e5829bc1-1cd8-4859-a075-30945473e994","name":"石尚自然探索屋 科博店","city":"taichung","wifi":5,"seat":3,"quiet":3,"tasty":5,"cheap":3,"music":0,"url":"http://web.shishang.com.tw/index.php","address":"台中市北區館前路1號(國立自然科學博物館 植物園B1)","latitude":"24.15811570","longitude":"120.66817770","limited_time":"","socket":"","standing_desk":"","mrt":"","open_time":""},{"id":"e59d30d2-5ba4-4647-821b-50f7197c40b9","name":"The CURVE Coffee Roasting Co.","city":"taichung","wifi":5,"seat":5,"quiet":5,"tasty":5,"cheap":4,"music":5,"url":"https://www.facebook.com/thecurvecoffee","address":"台中市西屯區黎明路二段912-1號","latitude":"24.16542080","longitude":"120.63488900","limited_time":"no","socket":"maybe","standing_desk":"yes","mrt":"","open_time":"12:00~20:00"},{"id":"e5c965da-f628-4a37-b04c-aa52b971ed3d","name":"玳尨飲 Daimon Drink","city":"taichung","wifi":0,"seat":5,"quiet":5,"tasty":5,"cheap":5,"music":4,"url":"https://m.facebook.com/DaimonDrink/?locale2=zh_TW","address":"台中市南區福德街142號","latitude":"24.12341390","longitude":"120.66457290","limited_time":"no","socket":"no","standing_desk":"no","mrt":"","open_time":"店休時間不固定"},{"id":"e6382bfc-c939-4927-b9fc-94fe4ba5221d","name":"采咖啡 DACAI003 CAFE","city":"taichung","wifi":5,"seat":5,"quiet":4,"tasty":5,"cheap":4,"music":4,"url":"http://facebook.com/dacaicafe50","address":"台中市西區五權五街50號","latitude":"24.14504000","longitude":"120.67044800","limited_time":"maybe","socket":"yes","standing_desk":"yes","mrt":"","open_time":"08:30-21:00"},{"id":"e6461dd5-668b-4b45-99c9-15463c9d7d6f","name":"咖啡道","city":"taichung","wifi":5,"seat":5,"quiet":5,"tasty":5,"cheap":5,"music":5,"url":"","address":"台中市西區五權西六街2號","latitude":"24.13956630","longitude":"120.65872120","limited_time":"maybe","socket":"yes","standing_desk":"no","mrt":"","open_time":"13:00-22:30"},{"id":"e6832869-dc1a-41a5-b7bd-cf0bb429b248","name":"三時茶房","city":"taichung","wifi":4,"seat":4.5,"quiet":4,"tasty":4.5,"cheap":5,"music":5,"url":"https://www.facebook.com/30almonds/","address":"台中市北區太平路107巷11號","latitude":"24.14803610","longitude":"120.68276400","limited_time":"maybe","socket":"no","standing_desk":"no","mrt":"","open_time":"13:00 - 21:30"},{"id":"e6a3629e-09cc-4508-b159-87369cdd4dac","name":"Deer Caf'e","city":"taichung","wifi":0,"seat":0,"quiet":0,"tasty":0,"cheap":0,"music":0,"url":"https://www.facebook.com/deercafe/","address":"台中市北區雙十路二段1巷2號","latitude":"24.15155720","longitude":"120.68786290","limited_time":"","socket":"","standing_desk":"","mrt":"","open_time":""},{"id":"e7b394f5-9ee3-4aa0-b1bc-ae874753c29e","name":"Allo Friend","city":"taichung","wifi":5,"seat":4.5,"quiet":3,"tasty":4.5,"cheap":3.5,"music":3.5,"url":"https://www.facebook.com/Allofriend","address":"台中市西區華美街39號","latitude":"24.14189240","longitude":"120.65876130","limited_time":"","socket":"","standing_desk":"","mrt":"","open_time":"11:00 - 22:00，每星期二公休"},{"id":"e855e401-0dc0-41ba-aeda-9daf6d4b99f0","name":"Louisa Coffee 路易．莎咖啡(逢甲福星店)","city":"taichung","wifi":5,"seat":2,"quiet":1,"tasty":3,"cheap":4,"music":4,"url":"https://www.facebook.com/louisacoffeepark/?hc_ref=SEARCH","address":"台中市西屯區河南路2段301巷72號","latitude":"24.17196620","longitude":"120.64834140","limited_time":"no","socket":"yes","standing_desk":"no","mrt":"","open_time":""},{"id":"e9fd692a-480a-4536-a51a-ff88c3876638","name":"BOZZ COFFEE懶人咖啡館","city":"taichung","wifi":4,"seat":5,"quiet":4,"tasty":5,"cheap":4,"music":4,"url":"","address":"台中市西區中興街122巷16號","latitude":"24.14824650","longitude":"120.66406160","limited_time":"no","socket":"no","standing_desk":"no","mrt":"","open_time":""},{"id":"ea443b56-7c55-4fb6-a702-3d15a92ccb94","name":"雲道咖啡 森門市","city":"taichung","wifi":5,"seat":4,"quiet":5,"tasty":5,"cheap":0,"music":0,"url":"https://zh-tw.facebook.com/coffeetree.king/","address":"台中市大墩十九街101號","latitude":"24.15721910","longitude":"120.65372330","limited_time":"no","socket":"maybe","standing_desk":"no","mrt":"","open_time":""},{"id":"ec1bd6c5-04d1-45d9-96d2-6195d8c5a9b8","name":"波魯克劇場","city":"taichung","wifi":5,"seat":5,"quiet":5,"tasty":4,"cheap":4,"music":5,"url":"https://www.facebook.com/Porcotheater/","address":"台中市西區昇平街35號","latitude":"24.14547900","longitude":"120.66317800","limited_time":"","socket":"yes","standing_desk":"no","mrt":"","open_time":""},{"id":"ec87d4ae-54fd-425c-9ed9-9cfedb4b9db6","name":"雪冰王子","city":"taichung","wifi":5,"seat":4,"quiet":3,"tasty":3,"cheap":5,"music":5,"url":"https://www.facebook.com/icepri/","address":"台中市北屯區大連北街26號","latitude":"24.17754160","longitude":"120.67446620","limited_time":"maybe","socket":"maybe","standing_desk":"no","mrt":"","open_time":"冬天夏天營業時間不一樣"},{"id":"ed3421d8-ad12-472c-9b14-a786ce708f3c","name":"樂樂書屋 LELE BOOKS HOUSE","city":"taichung","wifi":5,"seat":4,"quiet":4,"tasty":4,"cheap":4,"music":5,"url":"https://www.facebook.com/cpstylele/","address":"台中市西屯區玉成路6號","latitude":"24.17693340","longitude":"120.61973530","limited_time":"no","socket":"maybe","standing_desk":"no","mrt":"","open_time":""},{"id":"ed4bde27-f8aa-4015-a6fa-68534dc03b6c","name":"山步館","city":"taichung","wifi":0,"seat":0,"quiet":0,"tasty":0,"cheap":0,"music":0,"url":"","address":"436台中市清水區鰲海路59號","latitude":"24.26908590","longitude":"120.58076570","limited_time":"","socket":"","standing_desk":"","mrt":"","open_time":""},{"id":"ed7b3aa7-de50-4540-8303-679ce7a194a2","name":"空間咖啡","city":"taichung","wifi":0,"seat":0,"quiet":0,"tasty":0,"cheap":0,"music":0,"url":"","address":"后里區圳寮路140號","latitude":"24.31209920","longitude":"120.73312800","limited_time":"","socket":"","standing_desk":"","mrt":"","open_time":""},{"id":"ede9d004-4864-4aa9-b77e-e7369acebcba","name":"Chaud cafe 修咖啡","city":"taichung","wifi":4,"seat":5,"quiet":4,"tasty":4,"cheap":5,"music":5,"url":"https://www.facebook.com/chaudcofee/","address":"台中市霧峰區民主街71號","latitude":"24.06807680","longitude":"120.70011120","limited_time":"no","socket":"yes","standing_desk":"yes","mrt":"","open_time":""},{"id":"ef4bc2bf-f935-44f3-a1f8-a9d9fe8359d7","name":"醇豆咖啡_台中新光三越法雅客店","city":"taichung","wifi":4,"seat":3,"quiet":4,"tasty":4,"cheap":4,"music":4,"url":"","address":"台中市西屯區台灣大道三段301號9樓( 新光三越法雅客)","latitude":"24.16467580","longitude":"120.64338740","limited_time":"no","socket":"no","standing_desk":"yes","mrt":"","open_time":"11:00~21:45"},{"id":"ef551fb2-9a6d-4d60-bfdf-877e11615c98","name":"日行甜點文學工作室","city":"taichung","wifi":5,"seat":3.5,"quiet":5,"tasty":2.5,"cheap":2.5,"music":4,"url":"https://www.facebook.com/rixingpatisserie/","address":"台中市太平區中山路二段477巷82弄4號","latitude":"24.14821380","longitude":"120.72732050","limited_time":"","socket":"","standing_desk":"no","mrt":"","open_time":"每週五、週六、週日、週一，12：00到20:00"},{"id":"ef848037-86da-49cb-8dad-d13b4320dee8","name":"hecho 做咖啡","city":"taichung","wifi":2,"seat":4,"quiet":1.5,"tasty":2,"cheap":3.5,"music":3.5,"url":"","address":"台中市西區美村路一段133巷22號","latitude":"24.15165190","longitude":"120.66254430","limited_time":"maybe","socket":"maybe","standing_desk":"no","mrt":"","open_time":""},{"id":"eff0802b-51a5-42cb-bad3-a1bb0f9fcd50","name":"摩奇安娜MOCHiana","city":"taichung","wifi":5,"seat":5,"quiet":5,"tasty":5,"cheap":4,"music":4,"url":"https://www.mochianacoffee.com/","address":"台中市松竹五路43號","latitude":"24.17516720","longitude":"120.71168050","limited_time":"no","socket":"maybe","standing_desk":"yes","mrt":"","open_time":""},{"id":"f0579e47-2f7b-419b-be83-b708140ed273","name":"熊好餓咖啡","city":"taichung","wifi":5,"seat":5,"quiet":5,"tasty":5,"cheap":4.5,"music":4.5,"url":"https://www.facebook.com/HowerBear/","address":"台中市西屯區福上巷323弄16號 ","latitude":"24.17471400","longitude":"120.64545100","limited_time":"","socket":"maybe","standing_desk":"yes","mrt":"","open_time":""},{"id":"f21c5508-55dd-4e70-a66e-81edd9df069d","name":"Vespresso Coffee Bar","city":"taichung","wifi":5,"seat":5,"quiet":4,"tasty":5,"cheap":4,"music":4,"url":"https://m.facebook.com/Vespressocafebar/","address":"台中市西區英才路534號B1","latitude":"24.14944890","longitude":"120.66509280","limited_time":"no","socket":"yes","standing_desk":"yes","mrt":"","open_time":"已經停止營業"},{"id":"f42712b2-ca25-4ea0-b79a-772f7f0d91bc","name":"坂街","city":"taichung","wifi":0,"seat":5,"quiet":5,"tasty":5,"cheap":5,"music":5,"url":"https://www.facebook.com/suannkue/","address":"台中市清水區大街路82號","latitude":"24.26754200","longitude":"120.57807600","limited_time":"no","socket":"maybe","standing_desk":"no","mrt":"","open_time":"12:00~21:00"},{"id":"f438cd77-7217-4e4b-adff-2b4f9480b1e2","name":"Yi coffee悠咖啡河南店","city":"taichung","wifi":5,"seat":5,"quiet":4,"tasty":0,"cheap":0,"music":0,"url":"https://www.facebook.com/Yo-Coffee-%E6%82%A0%E5%92%96%E5%95%A1%E6%B2%B3%E5%8D%97%E5%BA%97-2095631450719240/","address":"台中市西屯區河南路二段313號","latitude":"24.17308690","longitude":"120.64670600","limited_time":"maybe","socket":"maybe","standing_desk":"no","mrt":"","open_time":""},{"id":"f524afce-1fd8-46f0-8c07-99bcf51bba81","name":"未央 musicafé  咖啡．音樂","city":"taichung","wifi":5,"seat":5,"quiet":5,"tasty":5,"cheap":5,"music":5,"url":"https://www.facebook.com/pg/endlessmusicafe/about/","address":"台中市西屯區上石南八巷42號","latitude":"24.17495740","longitude":"120.64313470","limited_time":"no","socket":"maybe","standing_desk":"yes","mrt":"","open_time":"1300-2200"},{"id":"f592bac8-61b9-49f6-bad5-62517cd801d3","name":"2S Sweet&Special ","city":"taichung","wifi":0,"seat":0,"quiet":0,"tasty":0,"cheap":0,"music":0,"url":"","address":"台中市西區模範街35-1號","latitude":"24.14997100","longitude":"120.66637900","limited_time":"","socket":"","standing_desk":"","mrt":"","open_time":""},{"id":"f6be406b-806b-42c1-8bde-3ad0ae212e81","name":"品皇咖啡(清水中華店)","city":"taichung","wifi":0,"seat":0,"quiet":0,"tasty":0,"cheap":0,"music":0,"url":"","address":"436台中市清水區中華路609之3號","latitude":"24.27733320","longitude":"120.57371360","limited_time":"","socket":"","standing_desk":"","mrt":"","open_time":""},{"id":"f6c1480b-b4ad-4ee0-974d-34c8bf1bc488","name":"洞穴The Cave","city":"taichung","wifi":5,"seat":5,"quiet":5,"tasty":5,"cheap":4,"music":4,"url":"https://www.facebook.com/TheCave.tw/","address":"台中市東區復興路四段37巷左側","latitude":"24.13567340","longitude":"120.68376470","limited_time":"no","socket":"maybe","standing_desk":"yes","mrt":"","open_time":"週末不定期有音樂表演"},{"id":"f7213480-bef2-4bb6-974f-0971e785f00d","name":"艾麗咖啡 eri coffee","city":"taichung","wifi":5,"seat":5,"quiet":5,"tasty":5,"cheap":5,"music":5,"url":"https://www.facebook.com/2009EriCoffee/","address":"台中市西區大墩十二街22號","latitude":"24.15437480","longitude":"120.66582280","limited_time":"no","socket":"maybe","standing_desk":"yes","mrt":"","open_time":""},{"id":"f76c38d2-4155-43eb-bf2e-f74fa945759c","name":"引品 sorso 飲室生活","city":"taichung","wifi":5,"seat":5,"quiet":5,"tasty":5,"cheap":4,"music":5,"url":"https://www.facebook.com/sorsocoffee/","address":"台中市北區太原路二段185號1樓","latitude":"24.16552280","longitude":"120.68025860","limited_time":"no","socket":"yes","standing_desk":"no","mrt":"","open_time":"偶有特殊店休時間，店家 FB 會另外公告"},{"id":"f7ffbf95-7e36-4a6c-a68a-687996e7c68e","name":"Coffeed back","city":"taichung","wifi":4,"seat":5,"quiet":3.5,"tasty":5,"cheap":5,"music":5,"url":"https://www.facebook.com/Cofeed.back/?modal=admin_todo_tour","address":"台中市南區復新街87巷8號","latitude":"24.12441900","longitude":"120.67648700","limited_time":"maybe","socket":"yes","standing_desk":"yes","mrt":"","open_time":"通常都會營業到更晚"},{"id":"f9563c17-2bd0-4745-bce2-8c3d6c614217","name":"禾果咖啡 FruitCoffee","city":"taichung","wifi":5,"seat":5,"quiet":5,"tasty":5,"cheap":5,"music":5,"url":"","address":"台中市西屯區漢翔路256號","latitude":"24.18523140","longitude":"120.64072540","limited_time":"no","socket":"yes","standing_desk":"yes","mrt":"","open_time":""},{"id":"f9980bb0-569c-46b2-8ddd-416955429371","name":"綠爵輕食館 LEISURELY CAFÉ","city":"taichung","wifi":5,"seat":4,"quiet":4.5,"tasty":5,"cheap":5,"music":5,"url":"https://www.facebook.com/leisurelyNcafe/","address":"台中市北屯區東山路一段218巷2號","latitude":"24.17348400","longitude":"120.71440200","limited_time":"no","socket":"no","standing_desk":"no","mrt":"","open_time":"11:00 - 22:00 周日休"},{"id":"f9da880a-3d3a-47e0-aded-75f9e27bd0c7","name":"T’s Bookstore 書店","city":"taichung","wifi":0,"seat":5,"quiet":4,"tasty":5,"cheap":5,"music":5,"url":"T’s書店","address":"台中市龍井區新興路2巷2-1號1樓","latitude":"24.18105690","longitude":"120.59232260","limited_time":"no","socket":"no","standing_desk":"no","mrt":"","open_time":""},{"id":"fa17e85f-c726-45bb-8cdd-6ab3dde28a69","name":"Brewsome Coffee","city":"taichung","wifi":5,"seat":5,"quiet":5,"tasty":4.5,"cheap":3.5,"music":4.5,"url":"https://www.facebook.com/BrewsomeCoffeeTW/","address":"台中市南屯區大墩四街316號","latitude":"24.14112350","longitude":"120.64734410","limited_time":"no","socket":"yes","standing_desk":"yes","mrt":"","open_time":""},{"id":"fa2e7d1e-47fa-42d3-aa6e-0f3a8f765d88","name":"Cupgaze","city":"taichung","wifi":4,"seat":4,"quiet":4,"tasty":5,"cheap":5,"music":5,"url":"https://www.facebook.com/cupgaze/","address":"台中市北區博館一街13號","latitude":"24.15495810","longitude":"120.66755420","limited_time":"","socket":"","standing_desk":"","mrt":"","open_time":""},{"id":"fe39ab41-49a1-427e-9771-0ec8f60f6f25","name":"Yosano与謝野直火烘焙咖啡工作室","city":"taichung","wifi":5,"seat":5,"quiet":5,"tasty":5,"cheap":5,"music":5,"url":"https://www.facebook.com/yosanozikabi/","address":"台中市西區自治街242號","latitude":"24.14350300","longitude":"120.66750800","limited_time":"no","socket":"maybe","standing_desk":"no","mrt":"","open_time":"週四公休、週一到週六12:00-22:00、週日12:00-17:30"},{"id":"feb15726-763f-41af-ba57-9de13c66502f","name":"老貓蛋捲咖啡","city":"taichung","wifi":5,"seat":5,"quiet":5,"tasty":5,"cheap":5,"music":5,"url":"https://www.facebook.com/oldcateggroll","address":"台中市西屯區國安一路125號","latitude":"24.19125700","longitude":"120.61300000","limited_time":"no","socket":"yes","standing_desk":"yes","mrt":"","open_time":"中午12點~晚上8點"}]